
$GPRMC,214055.085,A,3356.9591,N,08322.1436,W,18.06,83.02,040815,,,A*74
$GPGGA,214056.085,3356.9604,N,08322.1407,W,1,03,11.75,1332.4,M,-31.4,M,,*5B
$GPRMC,214056.085,A,3356.9604,N,08322.1407,W,17.79,83.18,040815,,,A*76
$GPGGA,214058.000,3356.9653,N,08322.1434,W,1,04,1.75,1329.9,M,-31.4,M,,*6B
$GPRMC,214058.000,A,3356.9653,N,08322.1434,W,8.10,42.26,040815,,,A*46
$GPGGA,214059.000,,,,,0,03,,,M,,M,,*70
$GPRMC,214101.000,A,3356.9625,N,08322.1482,W,8.60,357.56,040815,,,A*70
$GPGGA,214102.000,3356.9667,N,08322.1515,W,1,04,1.40,1389.8,M,-31.4,M,,*6D
$GPRMC,214102.000,A,3356.9667,N,08322.1515,W,8.60,356.13,040815,,,A*7A
$GPGGA,214103.000,3356.9719,N,08322.1542,W,1,04,1.40,1402.8,M,-31.4,M,,*62
$GPRMC,214103.000,A,3356.9719,N,08322.1542,W,8.64,354.06,040815,,,A*73
$GPGGA,214104.000,3356.9748,N,08322.1560,W,1,04,1.40,1412.0,M,-31.4,M,,*68
$GPRMC,214104.000,A,3356.9748,N,08322.1560,W,8.50,351.06,040815,,,A*72
$GPGGA,214105.000,3356.9773,N,08322.1583,W,1,04,1.40,1420.5,M,-31.4,M,,*68
$GPRMC,214105.000,A,3356.9773,N,08322.1583,W,8.33,345.61,040815,,,A*77
$GPGGA,214106.000,3356.9777,N,08322.1611,W,1,04,1.40,1427.6,M,-31.4,M,,*63
$GPRMC,214106.000,A,3356.9777,N,08322.1611,W,7.79,334.90,040815,,,A*71
$GPGGA,214107.000,3356.9791,N,08322.1711,W,1,04,1.27,1419.5,M,-31.4,M,,*64
$GPRMC,214107.000,A,3356.9791,N,08322.1711,W,9.34,311.76,040815,,,A*71
$GPGGA,214108.000,3356.9792,N,08322.1796,W,1,04,1.27,1413.4,M,-31.4,M,,*6C
$GPRMC,214108.000,A,3356.9792,N,08322.1796,W,10.99,296.81,040815,,,A*4B
$GPGGA,214109.000,3356.9777,N,08322.1876,W,1,04,1.27,1411.8,M,-31.4,M,,*69
$GPRMC,214109.000,A,3356.9777,N,08322.1876,W,13.36,265.86,040815,,,A*4D
$GPGGA,214110.000,3356.9811,N,08322.1953,W,1,04,1.27,1410.3,M,-31.4,M,,*62
$GPRMC,214110.000,A,3356.9811,N,08322.1953,W,15.98,282.01,040815,,,A*48
$GPGGA,214111.000,3356.9845,N,08322.1921,W,1,04,1.27,1407.6,M,-31.4,M,,*64
$GPRMC,214111.000,A,3356.9845,N,08322.1921,W,12.65,295.55,040815,,,A*4F
$GPGGA,214112.000,3356.9881,N,08322.1801,W,1,04,1.27,1407.9,M,-31.4,M,,*63
$GPRMC,214112.000,A,3356.9881,N,08322.1801,W,7.58,319.46,040815,,,A*7A
$GPGGA,214113.000,3356.9909,N,08322.1762,W,1,04,1.27,1409.0,M,-31.4,M,,*6E
$GPRMC,214113.000,A,3356.9909,N,08322.1762,W,6.45,341.23,040815,,,A*73
$GPGGA,214114.000,3356.9933,N,08322.1757,W,1,04,1.27,1408.4,M,-31.4,M,,*63
$GPRMC,214114.000,A,3356.9933,N,08322.1757,W,6.91,347.88,040815,,,A*75
$GPGGA,214115.000,3356.9953,N,08322.1754,W,1,04,1.40,1409.4,M,-31.4,M,,*67
$GPRMC,214115.000,A,3356.9953,N,08322.1754,W,6.47,356.66,040815,,,A*7A
$GPGGA,214116.000,3356.9972,N,08322.1754,W,1,04,1.40,1410.4,M,-31.4,M,,*6F
$GPRMC,214116.000,A,3356.9972,N,08322.1754,W,6.52,351.28,040815,,,A*73
$GPGGA,214117.000,3356.9989,N,08322.1763,W,1,04,1.40,1411.4,M,-31.4,M,,*6F
$GPRMC,214117.000,A,3356.9989,N,08322.1763,W,5.89,342.33,040815,,,A*7F
$GPGGA,214118.000,3357.0003,N,08322.1772,W,1,04,1.27,1412.4,M,-31.4,M,,*61
$GPRMC,214118.000,A,3357.0003,N,08322.1772,W,5.67,328.87,040815,,,A*70
$GPGGA,214119.000,3357.0017,N,08322.1779,W,1,04,1.40,1413.3,M,-31.4,M,,*69
$GPRMC,214119.000,A,3357.0017,N,08322.1779,W,5.55,341.33,040815,,,A*7E
$GPGGA,214120.000,3357.0031,N,08322.1778,W,1,04,1.27,1414.2,M,-31.4,M,,*61
$GPRMC,214120.000,A,3357.0031,N,08322.1778,W,5.47,3.30,040815,,,A*74
$GPGGA,214121.000,3357.0045,N,08322.1771,W,1,04,1.40,1415.0,M,-31.4,M,,*68
$GPRMC,214121.000,A,3357.0045,N,08322.1771,W,5.48,25.42,040815,,,A*41
$GPGGA,214122.000,3357.0058,N,08322.1763,W,1,04,1.28,1415.9,M,-31.4,M,,*63
$GPRMC,214122.000,A,3357.0058,N,08322.1763,W,5.27,20.46,040815,,,A*45
$GPGGA,214123.000,3357.0070,N,08322.1759,W,1,04,1.27,1416.8,M,-31.4,M,,*6C
$GPRMC,214123.000,A,3357.0070,N,08322.1759,W,4.81,7.54,040815,,,A*7C
$GPGGA,214124.000,3357.0082,N,08322.1758,W,1,04,1.40,1417.6,M,-31.4,M,,*69
$GPRMC,214124.000,A,3357.0082,N,08322.1758,W,4.49,355.31,040815,,,A*74
$GPGGA,214125.000,3357.0093,N,08322.1756,W,1,04,1.40,1418.4,M,-31.4,M,,*6B
$GPRMC,214125.000,A,3357.0093,N,08322.1756,W,4.09,10.95,040815,,,A*43
$GPGGA,214126.000,3357.0104,N,08322.1751,W,1,04,1.41,1419.2,M,-31.4,M,,*66
$GPRMC,214126.000,A,3357.0104,N,08322.1751,W,4.40,15.20,040815,,,A*4E
$GPGGA,214127.000,3357.0113,N,08322.1751,W,1,04,1.27,1420.1,M,-31.4,M,,*68
$GPRMC,214127.000,A,3357.0113,N,08322.1751,W,2.92,343.29,040815,,,A*79
$GPGGA,214128.000,3357.0118,N,08322.1752,W,1,04,1.27,1421.1,M,-31.4,M,,*6E
$GPRMC,214128.000,A,3357.0118,N,08322.1752,W,2.00,350.10,040815,,,A*7D
$GPGGA,214129.000,3357.0119,N,08322.1750,W,1,04,1.40,1422.0,M,-31.4,M,,*6F
$GPRMC,214129.000,A,3357.0119,N,08322.1750,W,1.06,61.03,040815,,,A*49
$GPGGA,214130.000,3357.0116,N,08322.1746,W,1,04,1.28,1422.8,M,-31.4,M,,*69
$GPRMC,214130.000,A,3357.0116,N,08322.1746,W,0.82,94.28,040815,,,A*47
$GPGGA,214131.000,3357.0114,N,08322.1744,W,1,04,1.28,1423.7,M,-31.4,M,,*66
$GPRMC,214131.000,A,3357.0114,N,08322.1744,W,0.71,93.39,040815,,,A*4D
$GPGGA,214132.000,3356.9985,N,08322.3545,W,1,05,1.19,1380.1,M,-31.4,M,,*67
$GPRMC,214132.000,A,3356.9985,N,08322.3545,W,0.42,71.77,040815,,,A*41
$GPGGA,214133.000,3356.9984,N,08322.3566,W,1,05,1.19,1378.7,M,-31.4,M,,*67
$GPRMC,214133.000,A,3356.9984,N,08322.3566,W,0.64,52.37,040815,,,A*41
$GPGGA,214134.000,3356.9982,N,08322.3573,W,1,05,1.19,1378.9,M,-31.4,M,,*6C
$GPRMC,214134.000,A,3356.9982,N,08322.3573,W,0.74,64.29,040815,,,A*4F
$GPGGA,214135.000,3356.9980,N,08322.3576,W,1,05,1.19,1379.2,M,-31.4,M,,*60
$GPRMC,214135.000,A,3356.9980,N,08322.3576,W,0.58,86.97,040815,,,A*4E
$GPGGA,214136.000,3356.9979,N,08322.3578,W,1,05,1.19,1378.8,M,-31.4,M,,*60
$GPRMC,214136.000,A,3356.9979,N,08322.3578,W,0.47,82.56,040815,,,A*42
$GPGGA,214137.000,3356.9979,N,08322.3579,W,1,05,1.19,1378.5,M,-31.4,M,,*6D
$GPRMC,214137.000,A,3356.9979,N,08322.3579,W,0.74,58.74,040815,,,A*45
$GPGGA,214138.000,3356.9978,N,08322.3579,W,1,05,1.19,1378.7,M,-31.4,M,,*61
$GPRMC,214138.000,A,3356.9978,N,08322.3579,W,0.60,52.11,040815,,,A*47
$GPGGA,214139.000,3356.9976,N,08322.3578,W,1,05,1.19,1378.9,M,-31.4,M,,*61
$GPRMC,214139.000,A,3356.9976,N,08322.3578,W,0.50,51.27,040815,,,A*4C
$GPGGA,214140.000,3356.9974,N,08322.3578,W,1,05,1.19,1378.8,M,-31.4,M,,*6C
$GPRMC,214140.000,A,3356.9974,N,08322.3578,W,0.63,59.25,040815,,,A*4A
$GPGGA,214141.000,3356.9973,N,08322.3577,W,1,05,1.19,1378.9,M,-31.4,M,,*64
$GPRMC,214141.000,A,3356.9973,N,08322.3577,W,0.44,55.89,040815,,,A*4C
$GPGGA,214142.000,3356.9974,N,08322.3577,W,1,05,1.19,1378.8,M,-31.4,M,,*61
$GPRMC,214142.000,A,3356.9974,N,08322.3577,W,0.57,27.28,040815,,,A*44
$GPGGA,214143.000,3356.9974,N,08322.3575,W,1,05,1.19,1378.8,M,-31.4,M,,*62
$GPRMC,214143.000,A,3356.9974,N,08322.3575,W,0.77,41.78,040815,,,A*40
$GPGGA,214144.000,3356.9972,N,08322.3574,W,1,05,1.19,1378.8,M,-31.4,M,,*62
$GPRMC,214144.000,A,3356.9972,N,08322.3574,W,0.43,37.61,040815,,,A*4E
$GPGGA,214145.000,3356.9972,N,08322.3573,W,1,05,1.19,1378.8,M,-31.4,M,,*64
$GPRMC,214145.000,A,3356.9972,N,08322.3573,W,0.59,47.80,040815,,,A*4B
$GPGGA,214146.000,3356.9972,N,08322.3572,W,1,05,1.19,1378.9,M,-31.4,M,,*67
$GPRMC,214146.000,A,3356.9972,N,08322.3572,W,0.57,39.87,040815,,,A*49
$GPGGA,214147.000,3356.9974,N,08322.3571,W,1,05,1.19,1378.9,M,-31.4,M,,*63
$GPRMC,214147.000,A,3356.9974,N,08322.3571,W,0.77,35.35,040815,,,A*4A
$GPGGA,214148.000,3356.9975,N,08322.3571,W,1,05,1.19,1379.0,M,-31.4,M,,*65
$GPRMC,214148.000,A,3356.9975,N,08322.3571,W,0.69,22.12,040815,,,A*48
$GPGGA,214149.000,3356.9976,N,08322.3570,W,1,05,1.19,1379.1,M,-31.4,M,,*67
$GPRMC,214149.000,A,3356.9976,N,08322.3570,W,0.62,33.88,040815,,,A*43
$GPGGA,214150.000,3356.9976,N,08322.3568,W,1,05,1.19,1379.2,M,-31.4,M,,*65
$GPRMC,214150.000,A,3356.9976,N,08322.3568,W,0.61,37.77,040815,,,A*45
$GPGGA,214151.000,3356.9976,N,08322.3568,W,1,05,1.19,1379.3,M,-31.4,M,,*65
$GPRMC,214151.000,A,3356.9976,N,08322.3568,W,0.58,30.69,040815,,,A*46
$GPGGA,214152.000,3356.9976,N,08322.3567,W,1,05,1.19,1379.3,M,-31.4,M,,*69
$GPRMC,214152.000,A,3356.9976,N,08322.3567,W,0.53,35.54,040815,,,A*4A
$GPGGA,214153.000,3356.9976,N,08322.3567,W,1,05,1.19,1379.4,M,-31.4,M,,*6F
$GPRMC,214153.000,A,3356.9976,N,08322.3567,W,0.46,33.61,040815,,,A*4F
$GPGGA,214154.000,3356.9976,N,08322.3566,W,1,05,1.19,1379.4,M,-31.4,M,,*69
$GPRMC,214154.000,A,3356.9976,N,08322.3566,W,0.54,37.08,040815,,,A*41
$GPGGA,214155.000,3356.9976,N,08322.3565,W,1,05,1.19,1379.5,M,-31.4,M,,*6A
$GPRMC,214155.000,A,3356.9976,N,08322.3565,W,0.51,45.43,040815,,,A*4C
$GPGGA,214156.000,3357.0846,N,08322.4211,W,1,06,1.24,936.5,M,-31.4,M,,*5D
$GPRMC,214156.000,A,3357.0846,N,08322.4211,W,0.11,140.96,040815,,,A*7E
$GPGGA,214157.000,3357.0939,N,08322.4285,W,1,06,1.25,879.0,M,-31.4,M,,*56
$GPRMC,214157.000,A,3357.0939,N,08322.4285,W,0.22,103.90,040815,,,A*7A
$GPGGA,214158.000,3357.1008,N,08322.4331,W,1,06,1.25,811.9,M,-31.4,M,,*5A
$GPRMC,214158.000,A,3357.1008,N,08322.4331,W,0.13,111.65,040815,,,A*7A
$GPGGA,214159.000,3357.1153,N,08322.4449,W,1,06,1.25,700.0,M,-31.4,M,,*5A
$GPRMC,214159.000,A,3357.1153,N,08322.4449,W,0.08,71.59,040815,,,A*4E
$GPGGA,214200.000,3357.1244,N,08322.4515,W,1,06,1.25,618.7,M,-31.4,M,,*57
$GPRMC,214200.000,A,3357.1244,N,08322.4515,W,0.04,330.51,040815,,,A*7E
$GPGGA,214201.000,3357.1287,N,08322.4540,W,1,06,1.25,569.2,M,-31.4,M,,*59
$GPRMC,214201.000,A,3357.1287,N,08322.4540,W,0.14,346.87,040815,,,A*7B
$GPGGA,214202.000,3357.1352,N,08322.4584,W,1,06,1.56,509.1,M,-31.4,M,,*5A
$GPRMC,214202.000,A,3357.1352,N,08322.4584,W,0.23,10.99,040815,,,A*42
$GPGGA,214203.000,3357.1417,N,08322.4622,W,1,05,2.38,448.0,M,-31.4,M,,*5F
$GPRMC,214203.000,A,3357.1417,N,08322.4622,W,0.22,327.66,040815,,,A*7C
$GPGGA,214204.000,3357.1452,N,08322.4644,W,1,06,1.25,418.0,M,-31.4,M,,*50
$GPRMC,214204.000,A,3357.1452,N,08322.4644,W,0.57,312.53,040815,,,A*78
$GPGGA,214205.000,3357.1486,N,08322.4671,W,1,06,1.25,391.6,M,-31.4,M,,*5E
$GPRMC,214205.000,A,3357.1486,N,08322.4671,W,1.63,309.40,040815,,,A*78
$GPGGA,214206.000,3357.1514,N,08322.4691,W,1,06,1.21,365.2,M,-31.4,M,,*52
$GPRMC,214206.000,A,3357.1514,N,08322.4691,W,1.78,326.83,040815,,,A*77
$GPGGA,214207.000,3357.1544,N,08322.4706,W,1,07,1.08,347.3,M,-31.4,M,,*52
$GPRMC,214207.000,A,3357.1544,N,08322.4706,W,3.35,334.76,040815,,,A*7E
$GPGGA,214208.000,3357.1576,N,08322.4727,W,1,07,1.08,328.2,M,-31.4,M,,*57
$GPRMC,214208.000,A,3357.1576,N,08322.4727,W,6.86,324.26,040815,,,A*7A
$GPGGA,214209.000,3357.1602,N,08322.4750,W,1,07,1.10,319.1,M,-31.4,M,,*5E
$GPRMC,214209.000,A,3357.1602,N,08322.4750,W,8.44,311.87,040815,,,A*76
$GPGGA,214210.000,3357.1626,N,08322.4784,W,1,07,1.10,306.7,M,-31.4,M,,*51
$GPRMC,214210.000,A,3357.1626,N,08322.4784,W,9.22,300.22,040815,,,A*7F
$GPGGA,214211.000,3357.1649,N,08322.4823,W,1,07,1.10,292.4,M,-31.4,M,,*54
$GPRMC,214211.000,A,3357.1649,N,08322.4823,W,9.74,292.73,040815,,,A*78
$GPGGA,214212.000,3357.1659,N,08322.4859,W,1,07,1.08,288.6,M,-31.4,M,,*5B
$GPRMC,214212.000,A,3357.1659,N,08322.4859,W,10.92,282.10,040815,,,A*43
$GPGGA,214213.000,3357.1666,N,08322.4898,W,1,07,1.10,286.0,M,-31.4,M,,*5A
$GPRMC,214213.000,A,3357.1666,N,08322.4898,W,11.47,277.33,040815,,,A*41
$GPGGA,214214.000,3357.1672,N,08322.4939,W,1,07,1.08,281.9,M,-31.4,M,,*55
$GPRMC,214214.000,A,3357.1672,N,08322.4939,W,11.40,274.74,040815,,,A*4E
$GPGGA,214215.000,3357.1676,N,08322.4978,W,1,07,1.08,280.8,M,-31.4,M,,*55
$GPRMC,214215.000,A,3357.1676,N,08322.4978,W,11.70,273.86,040815,,,A*47
$GPGGA,214216.000,3357.1679,N,08322.5019,W,1,07,1.08,279.4,M,-31.4,M,,*5C
$GPRMC,214216.000,A,3357.1679,N,08322.5019,W,12.17,274.32,040815,,,A*4E
$GPGGA,214217.000,3357.1685,N,08322.5064,W,1,07,1.08,277.7,M,-31.4,M,,*59
$GPRMC,214217.000,A,3357.1685,N,08322.5064,W,13.18,276.83,040815,,,A*40
$GPGGA,214218.000,3357.1690,N,08322.5109,W,1,07,1.08,276.3,M,-31.4,M,,*5D
$GPRMC,214218.000,A,3357.1690,N,08322.5109,W,13.14,276.59,040815,,,A*4A
$GPGGA,214219.000,3357.1697,N,08322.5155,W,1,07,1.08,273.0,M,-31.4,M,,*54
$GPRMC,214219.000,A,3357.1697,N,08322.5155,W,13.12,275.73,040815,,,A*48
$GPGGA,214220.000,3357.1705,N,08322.5205,W,1,07,1.08,268.3,M,-31.4,M,,*5B
$GPRMC,214220.000,A,3357.1705,N,08322.5205,W,13.84,277.06,040815,,,A*41
$GPGGA,214221.000,3357.1709,N,08322.5251,W,1,07,1.08,265.9,M,-31.4,M,,*50
$GPRMC,214221.000,A,3357.1709,N,08322.5251,W,13.26,274.90,040815,,,A*49
$GPGGA,214222.000,3357.1713,N,08322.5296,W,1,07,1.08,265.5,M,-31.4,M,,*5F
$GPRMC,214222.000,A,3357.1713,N,08322.5296,W,13.55,276.16,040815,,,A*42
$GPGGA,214223.000,3357.1716,N,08322.5344,W,1,07,1.10,264.8,M,-31.4,M,,*50
$GPRMC,214223.000,A,3357.1716,N,08322.5344,W,14.15,274.57,040815,,,A*4C
$GPGGA,214224.000,3357.1720,N,08322.5393,W,1,07,1.10,263.7,M,-31.4,M,,*50
$GPRMC,214224.000,A,3357.1720,N,08322.5393,W,14.80,275.21,040815,,,A*48
$GPGGA,214225.000,3357.1725,N,08322.5444,W,1,07,1.08,262.7,M,-31.4,M,,*51
$GPRMC,214225.000,A,3357.1725,N,08322.5444,W,15.47,276.02,040815,,,A*49
$GPGGA,214226.000,3357.1731,N,08322.5495,W,1,07,1.08,261.7,M,-31.4,M,,*58
$GPRMC,214226.000,A,3357.1731,N,08322.5495,W,15.25,275.86,040815,,,A*48
$GPGGA,214227.000,3357.1735,N,08322.5546,W,1,07,1.08,260.2,M,-31.4,M,,*56
$GPRMC,214227.000,A,3357.1735,N,08322.5546,W,14.89,272.57,040815,,,A*4E
$GPGGA,214228.000,3357.1738,N,08322.5595,W,1,07,1.08,259.2,M,-31.4,M,,*50
$GPRMC,214228.000,A,3357.1738,N,08322.5595,W,14.87,274.48,040815,,,A*44
$GPGGA,214229.000,3357.1744,N,08322.5642,W,1,07,1.08,258.4,M,-31.4,M,,*54
$GPRMC,214229.000,A,3357.1744,N,08322.5642,W,13.78,276.79,040815,,,A*40
$GPGGA,214230.000,3357.1748,N,08322.5685,W,1,07,1.08,256.0,M,-31.4,M,,*51
$GPRMC,214230.000,A,3357.1748,N,08322.5685,W,12.40,277.08,040815,,,A*42
$GPGGA,214231.000,3357.1750,N,08322.5720,W,1,07,1.08,253.9,M,-31.4,M,,*5B
$GPRMC,214231.000,A,3357.1750,N,08322.5720,W,10.40,273.74,040815,,,A*49
$GPGGA,214232.000,3357.1750,N,08322.5745,W,1,07,1.08,252.1,M,-31.4,M,,*52
$GPRMC,214232.000,A,3357.1750,N,08322.5745,W,7.53,272.80,040815,,,A*77
$GPGGA,214233.000,3357.1753,N,08322.5767,W,1,07,1.08,251.3,M,-31.4,M,,*51
$GPRMC,214233.000,A,3357.1753,N,08322.5767,W,6.64,280.36,040815,,,A*70
$GPGGA,214234.000,3357.1756,N,08322.5781,W,1,07,1.08,250.8,M,-31.4,M,,*51
$GPRMC,214234.000,A,3357.1756,N,08322.5781,W,4.15,281.75,040815,,,A*78
$GPGGA,214235.000,3357.1757,N,08322.5790,W,1,07,1.08,249.3,M,-31.4,M,,*52
$GPRMC,214235.000,A,3357.1757,N,08322.5790,W,2.07,281.75,040815,,,A*7D
$GPGGA,214236.000,3357.1758,N,08322.5795,W,1,07,1.08,248.1,M,-31.4,M,,*58
$GPRMC,214236.000,A,3357.1758,N,08322.5795,W,0.12,281.75,040815,,,A*72
$GPGGA,214237.000,3357.1757,N,08322.5799,W,1,07,1.08,246.7,M,-31.4,M,,*52
$GPRMC,214237.000,A,3357.1757,N,08322.5799,W,0.09,281.75,040815,,,A*7A
$GPGGA,214238.000,3357.1759,N,08322.5800,W,1,07,1.08,245.8,M,-31.4,M,,*50
$GPRMC,214238.000,A,3357.1759,N,08322.5800,W,0.06,281.75,040815,,,A*7B
$GPGGA,214239.000,3357.1758,N,08322.5800,W,1,07,1.08,244.5,M,-31.4,M,,*5C
$GPRMC,214239.000,A,3357.1758,N,08322.5800,W,0.03,281.75,040815,,,A*7E
$GPGGA,214240.000,3357.1758,N,08322.5801,W,1,07,1.08,244.4,M,-31.4,M,,*52
$GPRMC,214240.000,A,3357.1758,N,08322.5801,W,0.03,281.75,040815,,,A*71
$GPGGA,214241.000,3357.1757,N,08322.5802,W,1,07,1.08,244.4,M,-31.4,M,,*5F
$GPRMC,214241.000,A,3357.1757,N,08322.5802,W,0.00,281.75,040815,,,A*7F
$GPGGA,214242.000,3357.1757,N,08322.5802,W,1,07,1.10,244.4,M,-31.4,M,,*55
$GPRMC,214242.000,A,3357.1757,N,08322.5802,W,0.00,281.75,040815,,,A*7C
$GPGGA,214243.000,3357.1757,N,08322.5802,W,1,07,1.10,244.4,M,-31.4,M,,*54
$GPRMC,214243.000,A,3357.1757,N,08322.5802,W,0.00,281.75,040815,,,A*7D
$GPGGA,214244.000,3357.1757,N,08322.5802,W,1,07,1.10,244.4,M,-31.4,M,,*53
$GPRMC,214244.000,A,3357.1757,N,08322.5802,W,0.00,281.75,040815,,,A*7A
$GPGGA,214245.000,3357.1757,N,08322.5802,W,1,07,1.10,244.4,M,-31.4,M,,*52
$GPRMC,214245.000,A,3357.1757,N,08322.5802,W,0.00,281.75,040815,,,A*7B
$GPGGA,214246.000,3357.1757,N,08322.5802,W,1,07,1.10,244.4,M,-31.4,M,,*51
$GPRMC,214246.000,A,3357.1757,N,08322.5802,W,0.00,281.75,040815,,,A*78
$GPGGA,214247.000,3357.1757,N,08322.5802,W,1,07,1.10,244.4,M,-31.4,M,,*50
$GPRMC,214247.000,A,3357.1757,N,08322.5802,W,0.00,281.75,040815,,,A*79
$GPGGA,214248.000,3357.1757,N,08322.5802,W,1,07,1.10,244.4,M,-31.4,M,,*5F
$GPRMC,214248.000,A,3357.1757,N,08322.5802,W,0.00,281.75,040815,,,A*76
$GPGGA,214249.000,3357.1757,N,08322.5802,W,1,07,1.10,244.4,M,-31.4,M,,*5E
$GPRMC,214249.000,A,3357.1757,N,08322.5802,W,0.00,281.75,040815,,,A*77
$GPGGA,214250.000,3357.1757,N,08322.5802,W,1,07,1.10,244.4,M,-31.4,M,,*56
$GPRMC,214250.000,A,3357.1757,N,08322.5802,W,0.00,281.75,040815,,,A*7F
$GPGGA,214251.000,3357.1757,N,08322.5802,W,1,07,1.10,244.4,M,-31.4,M,,*57
$GPRMC,214251.000,A,3357.1757,N,08322.5802,W,0.00,281.75,040815,,,A*7E
$GPGGA,214252.000,3357.1757,N,08322.5802,W,1,07,1.10,244.4,M,-31.4,M,,*54
$GPRMC,214252.000,A,3357.1757,N,08322.5802,W,0.00,281.75,040815,,,A*7D
$GPGGA,214253.000,3357.1757,N,08322.5802,W,1,07,1.10,244.4,M,-31.4,M,,*55
$GPRMC,214253.000,A,3357.1757,N,08322.5802,W,0.00,281.75,040815,,,A*7C
$GPGGA,214254.000,3357.1757,N,08322.5802,W,1,07,1.10,244.4,M,-31.4,M,,*52
$GPRMC,214254.000,A,3357.1757,N,08322.5802,W,0.00,281.75,040815,,,A*7B
$GPGGA,214255.000,3357.1757,N,08322.5802,W,1,07,1.10,244.4,M,-31.4,M,,*53
$GPRMC,214255.000,A,3357.1757,N,08322.5802,W,0.00,281.75,040815,,,A*7A
$GPGGA,214256.000,3357.1757,N,08322.5802,W,1,07,1.10,244.4,M,-31.4,M,,*50
$GPRMC,214256.000,A,3357.1757,N,08322.5802,W,0.00,281.75,040815,,,A*79
$GPGGA,214257.000,3357.1757,N,08322.5802,W,1,07,1.10,244.4,M,-31.4,M,,*51
$GPRMC,214257.000,A,3357.1757,N,08322.5802,W,0.00,281.75,040815,,,A*78
$GPGGA,214258.000,3357.1757,N,08322.5802,W,1,07,1.10,244.4,M,-31.4,M,,*5E
$GPRMC,214258.000,A,3357.1757,N,08322.5802,W,0.00,281.75,040815,,,A*77
$GPGGA,214259.000,3357.1757,N,08322.5802,W,1,07,1.10,244.4,M,-31.4,M,,*5F
$GPRMC,214259.000,A,3357.1757,N,08322.5802,W,0.00,281.75,040815,,,A*76
$GPGGA,214300.000,3357.1757,N,08322.5802,W,1,07,1.10,244.4,M,-31.4,M,,*52
$GPRMC,214300.000,A,3357.1757,N,08322.5802,W,0.00,281.75,040815,,,A*7B
$GPGGA,214301.000,3357.1757,N,08322.5802,W,1,07,1.10,244.4,M,-31.4,M,,*53
$GPRMC,214301.000,A,3357.1757,N,08322.5802,W,0.00,281.75,040815,,,A*7A
$GPGGA,214302.000,3357.1757,N,08322.5802,W,1,07,1.10,244.4,M,-31.4,M,,*50
$GPRMC,214302.000,A,3357.1757,N,08322.5802,W,0.00,281.75,040815,,,A*79
$GPGGA,214303.000,3357.1757,N,08322.5802,W,1,07,1.10,244.4,M,-31.4,M,,*51
$GPRMC,214303.000,A,3357.1757,N,08322.5802,W,0.00,281.75,040815,,,A*78
$GPGGA,214304.000,3357.1757,N,08322.5802,W,1,07,1.10,244.4,M,-31.4,M,,*56
$GPRMC,214304.000,A,3357.1757,N,08322.5802,W,0.00,281.75,040815,,,A*7F
$GPGGA,214305.000,3357.1757,N,08322.5802,W,1,07,1.10,244.4,M,-31.4,M,,*57
$GPRMC,214305.000,A,3357.1757,N,08322.5802,W,0.00,281.75,040815,,,A*7E
$GPGGA,214306.000,3357.1757,N,08322.5802,W,1,07,1.10,244.4,M,-31.4,M,,*54
$GPRMC,214306.000,A,3357.1757,N,08322.5802,W,0.00,281.75,040815,,,A*7D
$GPGGA,214307.000,3357.1757,N,08322.5802,W,1,07,1.10,244.4,M,-31.4,M,,*55
$GPRMC,214307.000,A,3357.1757,N,08322.5802,W,0.00,281.75,040815,,,A*7C
$GPGGA,214308.000,3357.1757,N,08322.5803,W,1,07,1.08,244.4,M,-31.4,M,,*52
$GPRMC,214308.000,A,3357.1757,N,08322.5803,W,0.00,281.75,040815,,,A*72
$GPGGA,214309.000,3357.1757,N,08322.5803,W,1,07,1.10,244.4,M,-31.4,M,,*5A
$GPRMC,214309.000,A,3357.1757,N,08322.5803,W,0.00,281.75,040815,,,A*73
$GPGGA,214310.000,3357.1757,N,08322.5803,W,1,07,1.10,244.4,M,-31.4,M,,*52
$GPRMC,214310.000,A,3357.1757,N,08322.5803,W,0.00,281.75,040815,,,A*7B
$GPGGA,214311.000,3357.1757,N,08322.5803,W,1,07,1.10,244.4,M,-31.4,M,,*53
$GPRMC,214311.000,A,3357.1757,N,08322.5803,W,0.00,281.75,040815,,,A*7A
$GPGGA,214312.000,3357.1757,N,08322.5803,W,1,07,1.10,244.4,M,-31.4,M,,*50
$GPRMC,214312.000,A,3357.1757,N,08322.5803,W,0.00,281.75,040815,,,A*79
$GPGGA,214313.000,3357.1757,N,08322.5803,W,1,07,1.10,244.4,M,-31.4,M,,*51
$GPRMC,214313.000,A,3357.1757,N,08322.5803,W,0.00,281.75,040815,,,A*78
$GPGGA,214314.000,3357.1757,N,08322.5807,W,1,07,1.08,244.4,M,-31.4,M,,*5B
$GPRMC,214314.000,A,3357.1757,N,08322.5807,W,1.75,281.75,040815,,,A*78
$GPGGA,214315.000,3357.1759,N,08322.5812,W,1,07,1.08,244.4,M,-31.4,M,,*50
$GPRMC,214315.000,A,3357.1759,N,08322.5812,W,2.92,309.51,040815,,,A*7E
$GPGGA,214316.000,3357.1779,N,08322.5824,W,1,07,1.08,243.2,M,-31.4,M,,*55
$GPRMC,214316.000,A,3357.1779,N,08322.5824,W,7.85,338.68,040815,,,A*71
$GPGGA,214317.000,3357.1808,N,08322.5831,W,1,07,1.08,243.2,M,-31.4,M,,*59
$GPRMC,214317.000,A,3357.1808,N,08322.5831,W,9.85,353.20,040815,,,A*72
$GPGGA,214318.000,3357.1843,N,08322.5838,W,1,07,1.10,242.0,M,-31.4,M,,*5A
$GPRMC,214318.000,A,3357.1843,N,08322.5838,W,10.81,351.12,040815,,,A*44
$GPGGA,214319.000,3357.1878,N,08322.5844,W,1,07,1.10,241.7,M,-31.4,M,,*5C
$GPRMC,214319.000,A,3357.1878,N,08322.5844,W,11.48,352.95,040815,,,A*4E
$GPGGA,214320.000,3357.1917,N,08322.5838,W,1,07,1.10,241.2,M,-31.4,M,,*50
$GPRMC,214320.000,A,3357.1917,N,08322.5838,W,12.35,4.85,040815,,,A*4F
$GPGGA,214321.000,3357.1956,N,08322.5838,W,1,07,1.10,240.5,M,-31.4,M,,*52
$GPRMC,214321.000,A,3357.1956,N,08322.5838,W,12.77,358.96,040815,,,A*45
$GPGGA,214322.000,3357.1995,N,08322.5840,W,1,07,1.10,240.3,M,-31.4,M,,*57
$GPRMC,214322.000,A,3357.1995,N,08322.5840,W,13.53,0.65,040815,,,A*43
$GPGGA,214323.000,3357.2035,N,08322.5841,W,1,07,1.10,239.8,M,-31.4,M,,*52
$GPRMC,214323.000,A,3357.2035,N,08322.5841,W,13.55,1.09,040815,,,A*4E
$GPGGA,214324.000,3357.2076,N,08322.5841,W,1,07,1.10,239.7,M,-31.4,M,,*5D
$GPRMC,214324.000,A,3357.2076,N,08322.5841,W,13.84,3.87,040815,,,A*46
$GPGGA,214325.000,3357.2117,N,08322.5841,W,1,07,1.10,239.6,M,-31.4,M,,*5B
$GPRMC,214325.000,A,3357.2117,N,08322.5841,W,13.89,0.96,040815,,,A*4F
$GPGGA,214326.000,3357.2158,N,08322.5842,W,1,07,1.10,239.4,M,-31.4,M,,*52
$GPRMC,214326.000,A,3357.2158,N,08322.5842,W,13.87,0.37,040815,,,A*41
$GPGGA,214327.000,3357.2199,N,08322.5844,W,1,07,1.10,239.7,M,-31.4,M,,*5B
$GPRMC,214327.000,A,3357.2199,N,08322.5844,W,13.83,358.40,040815,,,A*41
$GPGGA,214328.000,3357.2239,N,08322.5846,W,1,07,1.10,240.1,M,-31.4,M,,*57
$GPRMC,214328.000,A,3357.2239,N,08322.5846,W,13.40,357.10,040815,,,A*40
$GPGGA,214329.000,3357.2278,N,08322.5849,W,1,07,1.10,240.0,M,-31.4,M,,*5D
$GPRMC,214329.000,A,3357.2278,N,08322.5849,W,13.42,358.10,040815,,,A*46
$GPGGA,214330.000,3357.2317,N,08322.5853,W,1,07,1.10,240.2,M,-31.4,M,,*54
$GPRMC,214330.000,A,3357.2317,N,08322.5853,W,13.58,0.01,040815,,,A*48
$GPGGA,214331.000,3357.2355,N,08322.5855,W,1,07,1.10,240.4,M,-31.4,M,,*53
$GPRMC,214331.000,A,3357.2355,N,08322.5855,W,13.35,0.73,040815,,,A*47
$GPGGA,214332.000,3357.2392,N,08322.5857,W,1,07,1.10,240.6,M,-31.4,M,,*5B
$GPRMC,214332.000,A,3357.2392,N,08322.5857,W,13.30,0.41,040815,,,A*49
$GPGGA,214333.000,3357.2430,N,08322.5858,W,1,07,1.10,241.1,M,-31.4,M,,*5C
$GPRMC,214333.000,A,3357.2430,N,08322.5858,W,12.76,358.35,040815,,,A*46
$GPGGA,214334.000,3357.2467,N,08322.5858,W,1,07,1.10,241.6,M,-31.4,M,,*5E
$GPRMC,214334.000,A,3357.2467,N,08322.5858,W,12.75,2.05,040815,,,A*4F
$GPGGA,214335.000,3357.2505,N,08322.5857,W,1,07,1.10,241.4,M,-31.4,M,,*57
$GPRMC,214335.000,A,3357.2505,N,08322.5857,W,12.72,2.40,040815,,,A*42
$GPGGA,214336.000,3357.2542,N,08322.5855,W,1,07,1.10,241.9,M,-31.4,M,,*58
$GPRMC,214336.000,A,3357.2542,N,08322.5855,W,13.02,2.30,040815,,,A*41
$GPGGA,214337.000,3357.2580,N,08322.5856,W,1,07,1.10,242.4,M,-31.4,M,,*5A
$GPRMC,214337.000,A,3357.2580,N,08322.5856,W,13.09,359.44,040815,,,A*48
$GPGGA,214338.000,3357.2617,N,08322.5856,W,1,07,1.10,243.1,M,-31.4,M,,*5C
$GPRMC,214338.000,A,3357.2617,N,08322.5856,W,13.11,0.74,040815,,,A*4F
$GPGGA,214339.000,3357.2654,N,08322.5855,W,1,07,1.10,243.9,M,-31.4,M,,*51
$GPRMC,214339.000,A,3357.2654,N,08322.5855,W,13.12,0.97,040815,,,A*44
$GPGGA,214340.000,3357.2690,N,08322.5853,W,1,07,1.11,244.7,M,-31.4,M,,*59
$GPRMC,214340.000,A,3357.2690,N,08322.5853,W,13.13,4.02,040815,,,A*4D
$GPGGA,214341.000,3357.2727,N,08322.5851,W,1,07,1.10,245.5,M,-31.4,M,,*55
$GPRMC,214341.000,A,3357.2727,N,08322.5851,W,13.06,3.70,040815,,,A*45
$GPGGA,214342.000,3357.2764,N,08322.5852,W,1,07,1.10,245.8,M,-31.4,M,,*5F
$GPRMC,214342.000,A,3357.2764,N,08322.5852,W,13.41,1.26,040815,,,A*40
$GPGGA,214343.000,3357.2799,N,08322.5859,W,1,07,1.10,246.4,M,-31.4,M,,*58
$GPRMC,214343.000,A,3357.2799,N,08322.5859,W,12.39,354.32,040815,,,A*40
$GPGGA,214344.000,3357.2832,N,08322.5867,W,1,07,1.10,246.8,M,-31.4,M,,*50
$GPRMC,214344.000,A,3357.2832,N,08322.5867,W,11.58,349.10,040815,,,A*4C
$GPGGA,214345.000,3357.2865,N,08322.5871,W,1,07,1.10,247.1,M,-31.4,M,,*5C
$GPRMC,214345.000,A,3357.2865,N,08322.5871,W,10.98,351.00,040815,,,A*4D
$GPGGA,214346.000,3357.2895,N,08322.5876,W,1,07,1.11,247.8,M,-31.4,M,,*5F
$GPRMC,214346.000,A,3357.2895,N,08322.5876,W,10.63,354.59,040815,,,A*4B
$GPGGA,214347.000,3357.2926,N,08322.5881,W,1,07,1.10,248.4,M,-31.4,M,,*5D
$GPRMC,214347.000,A,3357.2926,N,08322.5881,W,11.30,353.53,040815,,,A*41
$GPGGA,214348.000,3357.2959,N,08322.5886,W,1,07,1.10,248.6,M,-31.4,M,,*5F
$GPRMC,214348.000,A,3357.2959,N,08322.5886,W,11.83,357.12,040815,,,A*48
$GPGGA,214349.000,3357.2992,N,08322.5890,W,1,07,1.11,248.6,M,-31.4,M,,*5F
$GPRMC,214349.000,A,3357.2992,N,08322.5890,W,11.88,359.77,040815,,,A*4F
$GPGGA,214350.000,3357.3026,N,08322.5890,W,1,07,1.11,249.0,M,-31.4,M,,*57
$GPRMC,214350.000,A,3357.3026,N,08322.5890,W,12.53,3.36,040815,,,A*4C
$GPGGA,214351.000,3357.3061,N,08322.5893,W,1,07,1.10,249.0,M,-31.4,M,,*57
$GPRMC,214351.000,A,3357.3061,N,08322.5893,W,12.55,0.30,040815,,,A*4E
$GPGGA,214352.000,3357.3093,N,08322.5898,W,1,07,1.11,249.3,M,-31.4,M,,*50
$GPRMC,214352.000,A,3357.3093,N,08322.5898,W,11.01,352.42,040815,,,A*48
$GPGGA,214353.000,3357.3122,N,08322.5909,W,1,07,1.11,249.4,M,-31.4,M,,*54
$GPRMC,214353.000,A,3357.3122,N,08322.5909,W,10.36,336.82,040815,,,A*40
$GPGGA,214354.000,3357.3147,N,08322.5926,W,1,07,1.08,249.7,M,-31.4,M,,*56
$GPRMC,214354.000,A,3357.3147,N,08322.5926,W,9.98,323.12,040815,,,A*78
$GPGGA,214355.000,3357.3164,N,08322.5950,W,1,07,1.08,249.8,M,-31.4,M,,*58
$GPRMC,214355.000,A,3357.3164,N,08322.5950,W,9.93,311.08,040815,,,A*78
$GPGGA,214356.000,3357.3165,N,08322.5986,W,1,07,1.08,249.3,M,-31.4,M,,*5A
$GPRMC,214356.000,A,3357.3165,N,08322.5986,W,10.72,274.22,040815,,,A*4C
$GPGGA,214357.000,3357.3165,N,08322.6020,W,1,07,1.08,249.5,M,-31.4,M,,*5B
$GPRMC,214357.000,A,3357.3165,N,08322.6020,W,10.19,268.44,040815,,,A*4B
$GPGGA,214358.000,3357.3161,N,08322.6054,W,1,07,1.08,249.7,M,-31.4,M,,*51
$GPRMC,214358.000,A,3357.3161,N,08322.6054,W,9.71,262.54,040815,,,A*7E
$GPGGA,214359.000,3357.3151,N,08322.6096,W,1,07,1.08,249.7,M,-31.4,M,,*5D
$GPRMC,214359.000,A,3357.3151,N,08322.6096,W,12.14,258.29,040815,,,A*48
$GPGGA,214400.000,3357.3141,N,08322.6138,W,1,07,1.08,249.1,M,-31.4,M,,*54
$GPRMC,214400.000,A,3357.3141,N,08322.6138,W,12.67,256.35,040815,,,A*40
$GPGGA,214401.000,3357.3131,N,08322.6181,W,1,07,1.11,248.3,M,-31.4,M,,*5B
$GPRMC,214401.000,A,3357.3131,N,08322.6181,W,13.03,254.09,040815,,,A*4A
$GPGGA,214402.000,3357.3120,N,08322.6226,W,1,07,1.08,248.2,M,-31.4,M,,*5F
$GPRMC,214402.000,A,3357.3120,N,08322.6226,W,14.67,256.03,040815,,,A*4A
$GPGGA,214403.000,3357.3111,N,08322.6276,W,1,07,1.08,248.4,M,-31.4,M,,*5F
$GPRMC,214403.000,A,3357.3111,N,08322.6276,W,15.88,260.54,040815,,,A*4B
$GPGGA,214404.000,3357.3102,N,08322.6327,W,1,07,1.11,248.2,M,-31.4,M,,*51
$GPRMC,214404.000,A,3357.3102,N,08322.6327,W,15.86,260.14,040815,,,A*41
$GPGGA,214405.000,3357.3089,N,08322.6381,W,1,07,1.11,247.1,M,-31.4,M,,*52
$GPRMC,214405.000,A,3357.3089,N,08322.6381,W,15.40,258.79,040815,,,A*44
$GPGGA,214406.000,3357.3079,N,08322.6433,W,1,07,1.11,246.2,M,-31.4,M,,*52
$GPRMC,214406.000,A,3357.3079,N,08322.6433,W,14.47,254.98,040815,,,A*43
$GPGGA,214407.000,3357.3069,N,08322.6480,W,1,07,1.11,245.4,M,-31.4,M,,*5F
$GPRMC,214407.000,A,3357.3069,N,08322.6480,W,13.10,255.36,040815,,,A*4B
$GPGGA,214408.000,3357.3064,N,08322.6520,W,1,07,1.11,245.2,M,-31.4,M,,*50
$GPRMC,214408.000,A,3357.3064,N,08322.6520,W,11.32,263.18,040815,,,A*49
$GPGGA,214409.000,3357.3072,N,08322.6557,W,1,07,1.11,244.7,M,-31.4,M,,*52
$GPRMC,214409.000,A,3357.3072,N,08322.6557,W,10.49,292.75,040815,,,A*47
$GPGGA,214410.000,3357.3092,N,08322.6586,W,1,07,1.08,244.6,M,-31.4,M,,*51
$GPRMC,214410.000,A,3357.3092,N,08322.6586,W,11.12,320.95,040815,,,A*44
$GPGGA,214411.000,3357.3119,N,08322.6606,W,1,07,1.08,244.1,M,-31.4,M,,*5E
$GPRMC,214411.000,A,3357.3119,N,08322.6606,W,10.47,330.98,040815,,,A*41
$GPGGA,214412.000,3357.3147,N,08322.6620,W,1,07,1.11,243.7,M,-31.4,M,,*5B
$GPRMC,214412.000,A,3357.3147,N,08322.6620,W,10.71,337.75,040815,,,A*4C
$GPGGA,214413.000,3357.3178,N,08322.6631,W,1,07,1.08,243.1,M,-31.4,M,,*58
$GPRMC,214413.000,A,3357.3178,N,08322.6631,W,11.19,342.13,040815,,,A*4C
$GPGGA,214414.000,3357.3213,N,08322.6639,W,1,07,1.08,242.6,M,-31.4,M,,*5F
$GPRMC,214414.000,A,3357.3213,N,08322.6639,W,12.33,347.19,040815,,,A*49
$GPGGA,214415.000,3357.3249,N,08322.6649,W,1,07,1.11,242.5,M,-31.4,M,,*5D
$GPRMC,214415.000,A,3357.3249,N,08322.6649,W,12.69,345.58,040815,,,A*48
$GPGGA,214416.000,3357.3284,N,08322.6661,W,1,07,1.11,242.4,M,-31.4,M,,*54
$GPRMC,214416.000,A,3357.3284,N,08322.6661,W,12.75,343.40,040815,,,A*42
$GPGGA,214417.000,3357.3320,N,08322.6673,W,1,07,1.11,242.4,M,-31.4,M,,*59
$GPRMC,214417.000,A,3357.3320,N,08322.6673,W,12.80,343.26,040815,,,A*45
$GPGGA,214418.000,3357.3354,N,08322.6686,W,1,07,1.11,242.3,M,-31.4,M,,*58
$GPRMC,214418.000,A,3357.3354,N,08322.6686,W,12.81,344.54,040815,,,A*40
$GPGGA,214419.000,3357.3388,N,08322.6698,W,1,07,1.11,242.5,M,-31.4,M,,*51
$GPRMC,214419.000,A,3357.3388,N,08322.6698,W,12.51,344.04,040815,,,A*47
$GPGGA,214420.000,3357.3420,N,08322.6709,W,1,07,1.11,242.3,M,-31.4,M,,*51
$GPRMC,214420.000,A,3357.3420,N,08322.6709,W,12.09,345.03,040815,,,A*4A
$GPGGA,214421.000,3357.3452,N,08322.6718,W,1,07,1.11,242.1,M,-31.4,M,,*57
$GPRMC,214421.000,A,3357.3452,N,08322.6718,W,11.85,350.86,040815,,,A*40
$GPGGA,214422.000,3357.3484,N,08322.6723,W,1,07,1.11,242.1,M,-31.4,M,,*57
$GPRMC,214422.000,A,3357.3484,N,08322.6723,W,11.51,352.61,040815,,,A*42
$GPGGA,214423.000,3357.3514,N,08322.6726,W,1,07,1.11,242.0,M,-31.4,M,,*5A
$GPRMC,214423.000,A,3357.3514,N,08322.6726,W,10.57,352.88,040815,,,A*4E
$GPGGA,214424.000,3357.3542,N,08322.6730,W,1,07,1.11,242.3,M,-31.4,M,,*5A
$GPRMC,214424.000,A,3357.3542,N,08322.6730,W,10.83,349.94,040815,,,A*43
$GPGGA,214425.000,3357.3570,N,08322.6737,W,1,07,1.11,242.4,M,-31.4,M,,*5A
$GPRMC,214425.000,A,3357.3570,N,08322.6737,W,10.51,345.04,040815,,,A*4E
$GPGGA,214426.000,3357.3595,N,08322.6746,W,1,07,1.11,242.5,M,-31.4,M,,*55
$GPRMC,214426.000,A,3357.3595,N,08322.6746,W,9.41,341.26,040815,,,A*7D
$GPGGA,214427.000,3357.3618,N,08322.6755,W,1,07,1.11,242.7,M,-31.4,M,,*52
$GPRMC,214427.000,A,3357.3618,N,08322.6755,W,8.63,343.46,040815,,,A*7D
$GPGGA,214428.000,3357.3641,N,08322.6763,W,1,07,1.11,242.6,M,-31.4,M,,*55
$GPRMC,214428.000,A,3357.3641,N,08322.6763,W,8.29,343.57,040815,,,A*75
$GPGGA,214429.000,3357.3662,N,08322.6771,W,1,07,1.11,242.5,M,-31.4,M,,*55
$GPRMC,214429.000,A,3357.3662,N,08322.6771,W,7.97,342.36,040815,,,A*7A
$GPGGA,214430.000,3357.3682,N,08322.6778,W,1,07,1.11,243.0,M,-31.4,M,,*5E
$GPRMC,214430.000,A,3357.3682,N,08322.6778,W,7.60,344.58,040815,,,A*73
$GPGGA,214431.000,3357.3702,N,08322.6784,W,1,07,1.08,242.9,M,-31.4,M,,*55
$GPRMC,214431.000,A,3357.3702,N,08322.6784,W,7.62,346.20,040815,,,A*77
$GPGGA,214432.000,3357.3723,N,08322.6791,W,1,07,1.11,242.9,M,-31.4,M,,*59
$GPRMC,214432.000,A,3357.3723,N,08322.6791,W,8.06,343.88,040815,,,A*79
$GPGGA,214433.000,3357.3745,N,08322.6797,W,1,07,1.11,243.3,M,-31.4,M,,*55
$GPRMC,214433.000,A,3357.3745,N,08322.6797,W,7.98,348.71,040815,,,A*7B
$GPGGA,214434.000,3357.3767,N,08322.6804,W,1,07,1.11,243.7,M,-31.4,M,,*53
$GPRMC,214434.000,A,3357.3767,N,08322.6804,W,7.77,342.85,040815,,,A*79
$GPGGA,214435.000,3357.3789,N,08322.6814,W,1,07,1.11,243.8,M,-31.4,M,,*5C
$GPRMC,214435.000,A,3357.3789,N,08322.6814,W,7.93,335.44,040815,,,A*7E
$GPGGA,214436.000,3357.3809,N,08322.6826,W,1,07,1.11,243.1,M,-31.4,M,,*50
$GPRMC,214436.000,A,3357.3809,N,08322.6826,W,8.20,333.48,040815,,,A*76
$GPGGA,214437.000,3357.3830,N,08322.6839,W,1,07,1.11,242.7,M,-31.4,M,,*52
$GPRMC,214437.000,A,3357.3830,N,08322.6839,W,8.87,334.96,040815,,,A*7A
$GPGGA,214438.000,3357.3853,N,08322.6850,W,1,07,1.11,242.7,M,-31.4,M,,*57
$GPRMC,214438.000,A,3357.3853,N,08322.6850,W,8.85,339.09,040815,,,A*76
$GPGGA,214439.000,3357.3877,N,08322.6861,W,1,07,1.08,242.6,M,-31.4,M,,*5B
$GPRMC,214439.000,A,3357.3877,N,08322.6861,W,9.21,340.05,040815,,,A*7E
$GPGGA,214440.000,3357.3903,N,08322.6871,W,1,07,1.11,242.2,M,-31.4,M,,*5A
$GPRMC,214440.000,A,3357.3903,N,08322.6871,W,9.40,343.26,040815,,,A*76
$GPGGA,214441.000,3357.3927,N,08322.6879,W,1,07,1.08,242.2,M,-31.4,M,,*5D
$GPRMC,214441.000,A,3357.3927,N,08322.6879,W,8.92,344.13,040815,,,A*76
$GPGGA,214442.000,3357.3949,N,08322.6887,W,1,07,1.08,242.2,M,-31.4,M,,*57
$GPRMC,214442.000,A,3357.3949,N,08322.6887,W,8.16,342.31,040815,,,A*76
$GPGGA,214443.000,3357.3970,N,08322.6893,W,1,07,1.08,242.0,M,-31.4,M,,*5B
$GPRMC,214443.000,A,3357.3970,N,08322.6893,W,7.35,346.33,040815,,,A*70
$GPGGA,214444.000,3357.3989,N,08322.6898,W,1,07,1.11,241.8,M,-31.4,M,,*52
$GPRMC,214444.000,A,3357.3989,N,08322.6898,W,6.14,346.41,040815,,,A*7D
$GPGGA,214445.000,3357.4007,N,08322.6900,W,1,07,1.11,241.7,M,-31.4,M,,*54
$GPRMC,214445.000,A,3357.4007,N,08322.6900,W,5.86,354.04,040815,,,A*7E
$GPGGA,214446.000,3357.4021,N,08322.6902,W,1,07,1.11,241.7,M,-31.4,M,,*51
$GPRMC,214446.000,A,3357.4021,N,08322.6902,W,4.50,358.49,040815,,,A*74
$GPGGA,214447.000,3357.4032,N,08322.6903,W,1,07,1.11,241.8,M,-31.4,M,,*5C
$GPRMC,214447.000,A,3357.4032,N,08322.6903,W,3.01,347.99,040815,,,A*76
$GPGGA,214448.000,3357.4039,N,08322.6904,W,1,07,1.11,241.4,M,-31.4,M,,*53
$GPRMC,214448.000,A,3357.4039,N,08322.6904,W,0.08,347.99,040815,,,A*7F
$GPGGA,214449.000,3357.4043,N,08322.6904,W,1,07,1.11,241.1,M,-31.4,M,,*5A
$GPRMC,214449.000,A,3357.4043,N,08322.6904,W,0.05,347.99,040815,,,A*7E
$GPGGA,214450.000,3357.4043,N,08322.6905,W,1,07,1.08,239.9,M,-31.4,M,,*5C
$GPRMC,214450.000,A,3357.4043,N,08322.6905,W,0.00,347.99,040815,,,A*72
$GPGGA,214451.000,3357.4041,N,08322.6907,W,1,07,1.08,239.0,M,-31.4,M,,*54
$GPRMC,214451.000,A,3357.4041,N,08322.6907,W,0.03,347.99,040815,,,A*70
$GPGGA,214452.000,3357.4040,N,08322.6907,W,1,07,1.08,239.0,M,-31.4,M,,*56
$GPRMC,214452.000,A,3357.4040,N,08322.6907,W,0.02,347.99,040815,,,A*73
$GPGGA,214453.000,3357.4039,N,08322.6907,W,1,07,1.08,239.1,M,-31.4,M,,*58
$GPRMC,214453.000,A,3357.4039,N,08322.6907,W,0.00,347.99,040815,,,A*7E
$GPGGA,214454.000,3357.4039,N,08322.6907,W,1,07,1.11,239.1,M,-31.4,M,,*57
$GPRMC,214454.000,A,3357.4039,N,08322.6907,W,0.00,347.99,040815,,,A*79
$GPGGA,214455.000,3357.4039,N,08322.6907,W,1,07,1.11,239.1,M,-31.4,M,,*56
$GPRMC,214455.000,A,3357.4039,N,08322.6907,W,0.00,347.99,040815,,,A*78
$GPGGA,214456.000,3357.4039,N,08322.6907,W,1,07,1.11,239.1,M,-31.4,M,,*55
$GPRMC,214456.000,A,3357.4039,N,08322.6907,W,0.00,347.99,040815,,,A*7B
$GPGGA,214457.000,3357.4039,N,08322.6907,W,1,07,1.11,239.1,M,-31.4,M,,*54
$GPRMC,214457.000,A,3357.4039,N,08322.6907,W,0.00,347.99,040815,,,A*7A
$GPGGA,214458.000,3357.4039,N,08322.6907,W,1,07,1.11,239.1,M,-31.4,M,,*5B
$GPRMC,214458.000,A,3357.4039,N,08322.6907,W,0.00,347.99,040815,,,A*75
$GPGGA,214459.000,3357.4039,N,08322.6907,W,1,06,1.22,239.1,M,-31.4,M,,*5B
$GPRMC,214459.000,A,3357.4039,N,08322.6907,W,0.00,347.99,040815,,,A*74
$GPGGA,214500.000,3357.4039,N,08322.6907,W,1,06,1.22,239.1,M,-31.4,M,,*56
$GPRMC,214500.000,A,3357.4039,N,08322.6907,W,0.00,347.99,040815,,,A*79
$GPGGA,214501.000,3357.4039,N,08322.6907,W,1,06,1.22,239.1,M,-31.4,M,,*57
$GPRMC,214501.000,A,3357.4039,N,08322.6907,W,0.00,347.99,040815,,,A*78
$GPGGA,214502.000,3357.4040,N,08322.6907,W,1,06,1.21,239.0,M,-31.4,M,,*58
$GPRMC,214502.000,A,3357.4040,N,08322.6907,W,0.03,347.99,040815,,,A*76
$GPGGA,214503.000,3357.4041,N,08322.6907,W,1,06,1.21,238.9,M,-31.4,M,,*50
$GPRMC,214503.000,A,3357.4041,N,08322.6907,W,0.03,347.99,040815,,,A*76
$GPGGA,214504.000,3357.4042,N,08322.6906,W,1,06,1.21,238.9,M,-31.4,M,,*55
$GPRMC,214504.000,A,3357.4042,N,08322.6906,W,0.02,347.99,040815,,,A*72
$GPGGA,214505.000,3357.4042,N,08322.6906,W,1,06,1.22,238.8,M,-31.4,M,,*56
$GPRMC,214505.000,A,3357.4042,N,08322.6906,W,0.02,347.99,040815,,,A*73
$GPGGA,214506.000,3357.4043,N,08322.6906,W,1,06,1.22,238.7,M,-31.4,M,,*5B
$GPRMC,214506.000,A,3357.4043,N,08322.6906,W,0.03,347.99,040815,,,A*70
$GPGGA,214507.000,3357.4044,N,08322.6907,W,1,06,1.22,238.7,M,-31.4,M,,*5C
$GPRMC,214507.000,A,3357.4044,N,08322.6907,W,0.07,347.99,040815,,,A*73
$GPGGA,214508.000,3357.4045,N,08322.6908,W,1,06,1.21,238.7,M,-31.4,M,,*5E
$GPRMC,214508.000,A,3357.4045,N,08322.6908,W,0.79,347.99,040815,,,A*7B
$GPGGA,214509.000,3357.4047,N,08322.6909,W,1,06,1.22,238.6,M,-31.4,M,,*5E
$GPRMC,214509.000,A,3357.4047,N,08322.6909,W,1.02,347.99,040815,,,A*74
$GPGGA,214510.000,3357.4050,N,08322.6910,W,1,06,1.22,238.6,M,-31.4,M,,*58
$GPRMC,214510.000,A,3357.4050,N,08322.6910,W,1.10,347.99,040815,,,A*71
$GPGGA,214511.000,3357.4053,N,08322.6911,W,1,06,1.22,238.6,M,-31.4,M,,*5B
$GPRMC,214511.000,A,3357.4053,N,08322.6911,W,1.10,347.99,040815,,,A*72
$GPGGA,214512.000,3357.4056,N,08322.6912,W,1,06,1.22,238.6,M,-31.4,M,,*5E
$GPRMC,214512.000,A,3357.4056,N,08322.6912,W,1.08,347.99,040815,,,A*7E
$GPGGA,214513.000,3357.4059,N,08322.6913,W,1,06,1.22,238.6,M,-31.4,M,,*51
$GPRMC,214513.000,A,3357.4059,N,08322.6913,W,0.97,347.99,040815,,,A*76
$GPGGA,214514.000,3357.4062,N,08322.6913,W,1,06,1.22,238.6,M,-31.4,M,,*5E
$GPRMC,214514.000,A,3357.4062,N,08322.6913,W,1.00,347.99,040815,,,A*76
$GPGGA,214515.000,3357.4065,N,08322.6914,W,1,06,1.22,238.6,M,-31.4,M,,*5F
$GPRMC,214515.000,A,3357.4065,N,08322.6914,W,1.05,347.99,040815,,,A*72
$GPGGA,214516.000,3357.4067,N,08322.6914,W,1,06,1.22,238.5,M,-31.4,M,,*5D
$GPRMC,214516.000,A,3357.4067,N,08322.6914,W,1.27,347.99,040815,,,A*73
$GPGGA,214517.000,3357.4071,N,08322.6915,W,1,06,1.22,238.5,M,-31.4,M,,*5A
$GPRMC,214517.000,A,3357.4071,N,08322.6915,W,1.68,347.99,040815,,,A*7F
$GPGGA,214518.000,3357.4076,N,08322.6917,W,1,06,1.22,238.5,M,-31.4,M,,*50
$GPRMC,214518.000,A,3357.4076,N,08322.6917,W,3.27,338.08,040815,,,A*7C
$GPGGA,214519.000,3357.4090,N,08322.6921,W,1,07,1.08,238.2,M,-31.4,M,,*52
$GPRMC,214519.000,A,3357.4090,N,08322.6921,W,5.72,348.91,040815,,,A*71
$GPGGA,214520.000,3357.4111,N,08322.6926,W,1,07,1.11,237.4,M,-31.4,M,,*56
$GPRMC,214520.000,A,3357.4111,N,08322.6926,W,7.27,349.72,040815,,,A*7A
$GPGGA,214521.000,3357.4134,N,08322.6933,W,1,07,1.11,237.1,M,-31.4,M,,*51
$GPRMC,214521.000,A,3357.4134,N,08322.6933,W,7.80,345.46,040815,,,A*7E
$GPGGA,214522.000,3357.4156,N,08322.6945,W,1,07,1.11,236.4,M,-31.4,M,,*53
$GPRMC,214522.000,A,3357.4156,N,08322.6945,W,7.53,338.55,040815,,,A*7E
$GPGGA,214523.000,3357.4176,N,08322.6960,W,1,07,1.08,235.5,M,-31.4,M,,*5D
$GPRMC,214523.000,A,3357.4176,N,08322.6960,W,6.73,333.48,040815,,,A*7E
$GPGGA,214524.000,3357.4188,N,08322.6986,W,1,07,1.08,234.9,M,-31.4,M,,*5E
$GPRMC,214524.000,A,3357.4188,N,08322.6986,W,5.81,308.18,040815,,,A*73
$GPGGA,214525.000,3357.4186,N,08322.7030,W,1,07,1.08,234.9,M,-31.4,M,,*54
$GPRMC,214525.000,A,3357.4186,N,08322.7030,W,9.11,260.90,040815,,,A*73
$GPGGA,214526.000,3357.4178,N,08322.7086,W,1,07,1.08,235.0,M,-31.4,M,,*53
$GPRMC,214526.000,A,3357.4178,N,08322.7086,W,13.59,261.54,040815,,,A*42
$GPGGA,214527.000,3357.4169,N,08322.7140,W,1,07,1.08,235.3,M,-31.4,M,,*5A
$GPRMC,214527.000,A,3357.4169,N,08322.7140,W,14.65,257.19,040815,,,A*4C
$GPGGA,214528.000,3357.4156,N,08322.7192,W,1,07,1.11,235.6,M,-31.4,M,,*5B
$GPRMC,214528.000,A,3357.4156,N,08322.7192,W,14.88,252.20,040815,,,A*4C
$GPGGA,214529.000,3357.4138,N,08322.7242,W,1,07,1.08,235.9,M,-31.4,M,,*5B
$GPRMC,214529.000,A,3357.4138,N,08322.7242,W,14.89,245.63,040815,,,A*4B
$GPGGA,214530.000,3357.4121,N,08322.7291,W,1,07,1.08,236.2,M,-31.4,M,,*5D
$GPRMC,214530.000,A,3357.4121,N,08322.7291,W,15.54,247.25,040815,,,A*44
$GPGGA,214531.000,3357.4105,N,08322.7349,W,1,07,1.08,236.4,M,-31.4,M,,*58
$GPRMC,214531.000,A,3357.4105,N,08322.7349,W,17.76,250.98,040815,,,A*45
$GPGGA,214532.000,3357.4086,N,08322.7409,W,1,07,1.08,236.6,M,-31.4,M,,*50
$GPRMC,214532.000,A,3357.4086,N,08322.7409,W,18.69,250.65,040815,,,A*4C
$GPGGA,214533.000,3357.4064,N,08322.7465,W,1,07,1.08,236.9,M,-31.4,M,,*58
$GPRMC,214533.000,A,3357.4064,N,08322.7465,W,18.30,249.18,040815,,,A*45
$GPGGA,214534.000,3357.4053,N,08322.7529,W,1,07,1.08,237.3,M,-31.4,M,,*59
$GPRMC,214534.000,A,3357.4053,N,08322.7529,W,18.33,253.64,040815,,,A*4C
$GPGGA,214535.000,3357.4047,N,08322.7592,W,1,07,1.08,237.7,M,-31.4,M,,*59
$GPRMC,214535.000,A,3357.4047,N,08322.7592,W,17.56,256.70,040815,,,A*44
$GPGGA,214536.000,3357.4041,N,08322.7649,W,1,07,1.08,237.9,M,-31.4,M,,*57
$GPRMC,214536.000,A,3357.4041,N,08322.7649,W,16.22,255.84,040815,,,A*4E
$GPGGA,214537.000,3357.4040,N,08322.7707,W,1,07,1.08,237.1,M,-31.4,M,,*54
$GPRMC,214537.000,A,3357.4040,N,08322.7707,W,14.75,251.87,040815,,,A*42
$GPGGA,214538.000,3357.4039,N,08322.7751,W,1,07,1.11,237.1,M,-31.4,M,,*5E
$GPRMC,214538.000,A,3357.4039,N,08322.7751,W,11.40,253.38,040815,,,A*45
$GPGGA,214539.000,3357.4042,N,08322.7793,W,1,07,1.11,236.3,M,-31.4,M,,*5E
$GPRMC,214539.000,A,3357.4042,N,08322.7793,W,10.43,266.07,040815,,,A*4E
$GPGGA,214540.000,3357.4047,N,08322.7832,W,1,07,1.11,236.3,M,-31.4,M,,*51
$GPRMC,214540.000,A,3357.4047,N,08322.7832,W,11.74,277.84,040815,,,A*4F
$GPGGA,214541.000,3357.4062,N,08322.7867,W,1,07,1.11,235.8,M,-31.4,M,,*5F
$GPRMC,214541.000,A,3357.4062,N,08322.7867,W,10.09,287.52,040815,,,A*46
$GPGGA,214542.000,3357.4097,N,08322.7886,W,1,07,1.08,235.4,M,-31.4,M,,*5D
$GPRMC,214542.000,A,3357.4097,N,08322.7886,W,9.76,329.30,040815,,,A*71
$GPGGA,214543.000,3357.4138,N,08322.7898,W,1,07,1.11,234.8,M,-31.4,M,,*52
$GPRMC,214543.000,A,3357.4138,N,08322.7898,W,12.44,347.46,040815,,,A*49
$GPGGA,214544.000,3357.4180,N,08322.7910,W,1,07,1.11,233.3,M,-31.4,M,,*5B
$GPRMC,214544.000,A,3357.4180,N,08322.7910,W,14.33,348.51,040815,,,A*43
$GPGGA,214545.000,3357.4220,N,08322.7922,W,1,07,1.11,233.0,M,-31.4,M,,*51
$GPRMC,214545.000,A,3357.4220,N,08322.7922,W,14.32,345.97,040815,,,A*4C
$GPGGA,214546.000,3357.4261,N,08322.7936,W,1,07,1.11,232.7,M,-31.4,M,,*54
$GPRMC,214546.000,A,3357.4261,N,08322.7936,W,14.40,344.04,040815,,,A*41
$GPGGA,214547.000,3357.4300,N,08322.7953,W,1,07,1.11,232.5,M,-31.4,M,,*52
$GPRMC,214547.000,A,3357.4300,N,08322.7953,W,14.23,339.67,040815,,,A*4F
$GPGGA,214548.000,3357.4337,N,08322.7971,W,1,07,1.08,232.3,M,-31.4,M,,*57
$GPRMC,214548.000,A,3357.4337,N,08322.7971,W,14.30,336.13,040815,,,A*4A
$GPGGA,214549.000,3357.4374,N,08322.7989,W,1,07,1.08,232.2,M,-31.4,M,,*57
$GPRMC,214549.000,A,3357.4374,N,08322.7989,W,14.48,336.56,040815,,,A*45
$GPGGA,214550.000,3357.4412,N,08322.8005,W,1,06,1.22,232.0,M,-31.4,M,,*51
$GPRMC,214550.000,A,3357.4412,N,08322.8005,W,14.51,340.54,040815,,,A*43
$GPGGA,214551.000,3357.4450,N,08322.8023,W,1,06,1.22,231.9,M,-31.4,M,,*58
$GPRMC,214551.000,A,3357.4450,N,08322.8023,W,14.71,343.66,040815,,,A*40
$GPGGA,214552.000,3357.4486,N,08322.8033,W,1,07,1.11,232.0,M,-31.4,M,,*5A
$GPRMC,214552.000,A,3357.4486,N,08322.8033,W,13.30,341.45,040815,,,A*48
$GPGGA,214553.000,3357.4521,N,08322.8043,W,1,07,1.11,232.1,M,-31.4,M,,*51
$GPRMC,214553.000,A,3357.4521,N,08322.8043,W,13.01,343.44,040815,,,A*43
$GPGGA,214554.000,3357.4554,N,08322.8055,W,1,07,1.11,232.0,M,-31.4,M,,*52
$GPRMC,214554.000,A,3357.4554,N,08322.8055,W,12.94,344.36,040815,,,A*4E
$GPGGA,214555.000,3357.4585,N,08322.8065,W,1,07,1.08,232.1,M,-31.4,M,,*55
$GPRMC,214555.000,A,3357.4585,N,08322.8065,W,12.52,342.66,040815,,,A*49
$GPGGA,214556.000,3357.4617,N,08322.8076,W,1,07,1.11,231.7,M,-31.4,M,,*51
$GPRMC,214556.000,A,3357.4617,N,08322.8076,W,11.91,343.98,040815,,,A*4C
$GPGGA,214557.000,3357.4649,N,08322.8086,W,1,07,1.11,231.7,M,-31.4,M,,*54
$GPRMC,214557.000,A,3357.4649,N,08322.8086,W,11.84,344.32,040815,,,A*4A
$GPGGA,214558.000,3357.4680,N,08322.8098,W,1,07,1.11,231.6,M,-31.4,M,,*50
$GPRMC,214558.000,A,3357.4680,N,08322.8098,W,11.37,342.83,040815,,,A*4B
$GPGGA,214559.000,3357.4711,N,08322.8110,W,1,07,1.11,231.7,M,-31.4,M,,*58
$GPRMC,214559.000,A,3357.4711,N,08322.8110,W,11.36,345.46,040815,,,A*4D
$GPGGA,214600.000,3357.4741,N,08322.8120,W,1,07,1.11,231.9,M,-31.4,M,,*5F
$GPRMC,214600.000,A,3357.4741,N,08322.8120,W,10.89,343.18,040815,,,A*4C
$GPGGA,214601.000,3357.4769,N,08322.8129,W,1,07,1.11,231.8,M,-31.4,M,,*5C
$GPRMC,214601.000,A,3357.4769,N,08322.8129,W,10.19,345.27,040815,,,A*4D
$GPGGA,214602.000,3357.4798,N,08322.8139,W,1,07,1.11,231.7,M,-31.4,M,,*5F
$GPRMC,214602.000,A,3357.4798,N,08322.8139,W,10.52,343.53,040815,,,A*4B
$GPGGA,214603.000,3357.4827,N,08322.8152,W,1,07,1.11,231.1,M,-31.4,M,,*5E
$GPRMC,214603.000,A,3357.4827,N,08322.8152,W,10.51,341.05,040815,,,A*4E
$GPGGA,214604.000,3357.4855,N,08322.8163,W,1,07,1.11,230.6,M,-31.4,M,,*58
$GPRMC,214604.000,A,3357.4855,N,08322.8163,W,10.55,342.85,040815,,,A*41
$GPGGA,214605.000,3357.4884,N,08322.8173,W,1,07,1.11,230.1,M,-31.4,M,,*53
$GPRMC,214605.000,A,3357.4884,N,08322.8173,W,11.07,343.68,040815,,,A*49
$GPGGA,214606.000,3357.4915,N,08322.8184,W,1,07,1.11,230.3,M,-31.4,M,,*53
$GPRMC,214606.000,A,3357.4915,N,08322.8184,W,11.62,343.65,040815,,,A*45
$GPGGA,214607.000,3357.4946,N,08322.8195,W,1,07,1.11,230.4,M,-31.4,M,,*53
$GPRMC,214607.000,A,3357.4946,N,08322.8195,W,11.66,343.59,040815,,,A*49
$GPGGA,214608.000,3357.4977,N,08322.8205,W,1,07,1.08,230.5,M,-31.4,M,,*5D
$GPRMC,214608.000,A,3357.4977,N,08322.8205,W,12.03,345.24,040815,,,A*42
$GPGGA,214609.000,3357.5009,N,08322.8214,W,1,07,1.11,230.4,M,-31.4,M,,*54
$GPRMC,214609.000,A,3357.5009,N,08322.8214,W,12.61,347.45,040815,,,A*43
$GPGGA,214610.000,3357.5045,N,08322.8222,W,1,07,1.11,230.3,M,-31.4,M,,*56
$GPRMC,214610.000,A,3357.5045,N,08322.8222,W,13.21,348.94,040815,,,A*40
$GPGGA,214611.000,3357.5082,N,08322.8232,W,1,07,1.11,230.4,M,-31.4,M,,*5A
$GPRMC,214611.000,A,3357.5082,N,08322.8232,W,13.69,347.09,040815,,,A*4C
$GPGGA,214612.000,3357.5119,N,08322.8243,W,1,07,1.11,230.7,M,-31.4,M,,*5F
$GPRMC,214612.000,A,3357.5119,N,08322.8243,W,13.22,344.34,040815,,,A*48
$GPGGA,214613.000,3357.5156,N,08322.8256,W,1,07,1.08,230.8,M,-31.4,M,,*56
$GPRMC,214613.000,A,3357.5156,N,08322.8256,W,13.44,342.84,040815,,,A*4B
$GPGGA,214614.000,3357.5191,N,08322.8268,W,1,07,1.11,230.9,M,-31.4,M,,*5E
$GPRMC,214614.000,A,3357.5191,N,08322.8268,W,12.45,341.68,040815,,,A*4B
$GPGGA,214615.000,3357.5223,N,08322.8281,W,1,07,1.09,231.1,M,-31.4,M,,*52
$GPRMC,214615.000,A,3357.5223,N,08322.8281,W,11.53,337.95,040815,,,A*40
$GPGGA,214616.000,3357.5250,N,08322.8294,W,1,07,1.11,230.8,M,-31.4,M,,*50
$GPRMC,214616.000,A,3357.5250,N,08322.8294,W,9.41,339.32,040815,,,A*7A
$GPGGA,214617.000,3357.5273,N,08322.8304,W,1,07,1.11,230.9,M,-31.4,M,,*59
$GPRMC,214617.000,A,3357.5273,N,08322.8304,W,8.45,339.73,040815,,,A*72
$GPGGA,214618.000,3357.5293,N,08322.8311,W,1,07,1.08,231.0,M,-31.4,M,,*5C
$GPRMC,214618.000,A,3357.5293,N,08322.8311,W,6.94,345.78,040815,,,A*75
$GPGGA,214619.000,3357.5305,N,08322.8316,W,1,07,1.11,230.5,M,-31.4,M,,*58
$GPRMC,214619.000,A,3357.5305,N,08322.8316,W,3.78,345.41,040815,,,A*70
$GPGGA,214620.000,3357.5312,N,08322.8319,W,1,07,1.11,230.3,M,-31.4,M,,*5D
$GPRMC,214620.000,A,3357.5312,N,08322.8319,W,0.19,345.41,040815,,,A*77
$GPGGA,214621.000,3357.5317,N,08322.8322,W,1,07,1.11,230.3,M,-31.4,M,,*51
$GPRMC,214621.000,A,3357.5317,N,08322.8322,W,0.11,345.41,040815,,,A*73
$GPGGA,214622.000,3357.5319,N,08322.8324,W,1,07,1.09,230.2,M,-31.4,M,,*52
$GPRMC,214622.000,A,3357.5319,N,08322.8324,W,0.09,345.41,040815,,,A*71
$GPGGA,214623.000,3357.5325,N,08322.8326,W,1,07,1.09,230.3,M,-31.4,M,,*5F
$GPRMC,214623.000,A,3357.5325,N,08322.8326,W,0.18,345.41,040815,,,A*7D
$GPGGA,214624.000,3357.5330,N,08322.8329,W,1,07,1.08,230.4,M,-31.4,M,,*55
$GPRMC,214624.000,A,3357.5330,N,08322.8329,W,0.25,345.41,040815,,,A*7F
$GPGGA,214625.000,3357.5337,N,08322.8334,W,1,07,1.09,230.7,M,-31.4,M,,*5D
$GPRMC,214625.000,A,3357.5337,N,08322.8334,W,0.27,345.41,040815,,,A*77
$GPGGA,214626.000,3357.5350,N,08322.8349,W,1,07,1.08,231.0,M,-31.4,M,,*52
$GPRMC,214626.000,A,3357.5350,N,08322.8349,W,6.60,315.56,040815,,,A*79
$GPGGA,214627.000,3357.5374,N,08322.8363,W,1,07,1.09,231.1,M,-31.4,M,,*5D
$GPRMC,214627.000,A,3357.5374,N,08322.8363,W,8.87,326.62,040815,,,A*76
$GPGGA,214628.000,3357.5420,N,08322.8371,W,1,07,1.09,231.3,M,-31.4,M,,*55
$GPRMC,214628.000,A,3357.5420,N,08322.8371,W,13.78,344.35,040815,,,A*40
$GPGGA,214629.000,3357.5466,N,08322.8381,W,1,07,1.11,231.6,M,-31.4,M,,*55
$GPRMC,214629.000,A,3357.5466,N,08322.8381,W,15.54,345.71,040815,,,A*45
$GPGGA,214630.000,3357.5513,N,08322.8393,W,1,07,1.11,231.9,M,-31.4,M,,*52
$GPRMC,214630.000,A,3357.5513,N,08322.8393,W,15.80,347.21,040815,,,A*43
$GPGGA,214631.000,3357.5559,N,08322.8405,W,1,07,1.11,232.2,M,-31.4,M,,*5D
$GPRMC,214631.000,A,3357.5559,N,08322.8405,W,16.10,345.46,040815,,,A*4D
$GPGGA,214632.000,3357.5606,N,08322.8419,W,1,07,1.11,232.5,M,-31.4,M,,*5D
$GPRMC,214632.000,A,3357.5606,N,08322.8419,W,16.06,343.41,040815,,,A*4C
$GPGGA,214633.000,3357.5652,N,08322.8435,W,1,07,1.09,232.9,M,-31.4,M,,*56
$GPRMC,214633.000,A,3357.5652,N,08322.8435,W,16.85,343.30,040815,,,A*4F
$GPGGA,214634.000,3357.5698,N,08322.8453,W,1,07,1.11,233.1,M,-31.4,M,,*57
$GPRMC,214634.000,A,3357.5698,N,08322.8453,W,17.09,339.86,040815,,,A*4B
$GPGGA,214635.000,3357.5745,N,08322.8475,W,1,07,1.11,233.2,M,-31.4,M,,*50
$GPRMC,214635.000,A,3357.5745,N,08322.8475,W,17.69,337.66,040815,,,A*49
$GPGGA,214636.000,3357.5792,N,08322.8497,W,1,07,1.11,233.2,M,-31.4,M,,*55
$GPRMC,214636.000,A,3357.5792,N,08322.8497,W,17.70,338.64,040815,,,A*49
$GPGGA,214637.000,3357.5838,N,08322.8518,W,1,07,1.11,233.2,M,-31.4,M,,*5D
$GPRMC,214637.000,A,3357.5838,N,08322.8518,W,17.17,339.60,040815,,,A*45
$GPGGA,214638.000,3357.5887,N,08322.8538,W,1,07,1.11,233.1,M,-31.4,M,,*57
$GPRMC,214638.000,A,3357.5887,N,08322.8538,W,17.50,340.21,040815,,,A*44
$GPGGA,214639.000,3357.5939,N,08322.8562,W,1,07,1.11,233.0,M,-31.4,M,,*5C
$GPRMC,214639.000,A,3357.5939,N,08322.8562,W,19.43,335.48,040815,,,A*4F
$GPGGA,214640.000,3357.5987,N,08322.8597,W,1,07,1.11,232.4,M,-31.4,M,,*58
$GPRMC,214640.000,A,3357.5987,N,08322.8597,W,18.90,319.82,040815,,,A*49
$GPGGA,214641.000,3357.6022,N,08322.8644,W,1,07,1.11,232.3,M,-31.4,M,,*56
$GPRMC,214641.000,A,3357.6022,N,08322.8644,W,18.40,302.97,040815,,,A*43
$GPGGA,214642.000,3357.6050,N,08322.8697,W,1,07,1.09,232.1,M,-31.4,M,,*55
$GPRMC,214642.000,A,3357.6050,N,08322.8697,W,19.04,299.48,040815,,,A*4B
$GPGGA,214643.000,3357.6075,N,08322.8753,W,1,07,1.09,232.1,M,-31.4,M,,*5A
$GPRMC,214643.000,A,3357.6075,N,08322.8753,W,18.57,296.02,040815,,,A*42
$GPGGA,214644.000,3357.6090,N,08322.8809,W,1,07,1.11,231.9,M,-31.4,M,,*54
$GPRMC,214644.000,A,3357.6090,N,08322.8809,W,17.54,290.15,040815,,,A*42
$GPGGA,214645.000,3357.6097,N,08322.8869,W,1,07,1.09,231.7,M,-31.4,M,,*53
$GPRMC,214645.000,A,3357.6097,N,08322.8869,W,17.61,281.95,040815,,,A*4C
$GPGGA,214646.000,3357.6101,N,08322.8926,W,1,07,1.09,231.5,M,-31.4,M,,*56
$GPRMC,214646.000,A,3357.6101,N,08322.8926,W,16.74,278.26,040815,,,A*40
$GPGGA,214647.000,3357.6108,N,08322.8982,W,1,07,1.11,231.3,M,-31.4,M,,*5F
$GPRMC,214647.000,A,3357.6108,N,08322.8982,W,16.70,279.19,040815,,,A*4F
$GPGGA,214648.000,3357.6118,N,08322.9039,W,1,07,1.12,230.9,M,-31.4,M,,*51
$GPRMC,214648.000,A,3357.6118,N,08322.9039,W,16.53,278.60,040815,,,A*47
$GPGGA,214649.000,3357.6126,N,08322.9094,W,1,07,1.11,230.5,M,-31.4,M,,*55
$GPRMC,214649.000,A,3357.6126,N,08322.9094,W,16.08,277.32,040815,,,A*4A
$GPGGA,214650.000,3357.6132,N,08322.9147,W,1,07,1.11,230.2,M,-31.4,M,,*50
$GPRMC,214650.000,A,3357.6132,N,08322.9147,W,15.31,277.22,040815,,,A*40
$GPGGA,214651.000,3357.6139,N,08322.9199,W,1,07,1.11,229.7,M,-31.4,M,,*54
$GPRMC,214651.000,A,3357.6139,N,08322.9199,W,15.28,278.40,040815,,,A*4A
$GPGGA,214652.000,3357.6145,N,08322.9252,W,1,07,1.11,229.4,M,-31.4,M,,*5B
$GPRMC,214652.000,A,3357.6145,N,08322.9252,W,15.51,277.40,040815,,,A*47
$GPGGA,214653.000,3357.6150,N,08322.9305,W,1,07,1.12,229.4,M,-31.4,M,,*5E
$GPRMC,214653.000,A,3357.6150,N,08322.9305,W,15.70,277.23,040815,,,A*47
$GPGGA,214654.000,3357.6155,N,08322.9358,W,1,07,1.12,229.7,M,-31.4,M,,*57
$GPRMC,214654.000,A,3357.6155,N,08322.9358,W,15.18,278.02,040815,,,A*4F
$GPGGA,214655.000,3357.6161,N,08322.9411,W,1,07,1.12,229.8,M,-31.4,M,,*54
$GPRMC,214655.000,A,3357.6161,N,08322.9411,W,14.98,276.36,040815,,,A*43
$GPGGA,214656.000,3357.6167,N,08322.9461,W,1,07,1.09,229.8,M,-31.4,M,,*5C
$GPRMC,214656.000,A,3357.6167,N,08322.9461,W,14.61,278.71,040815,,,A*4A
$GPGGA,214657.000,3357.6174,N,08322.9510,W,1,07,1.12,229.8,M,-31.4,M,,*52
$GPRMC,214657.000,A,3357.6174,N,08322.9510,W,14.89,279.83,040815,,,A*44
$GPGGA,214658.000,3357.6182,N,08322.9559,W,1,07,1.11,230.0,M,-31.4,M,,*5A
$GPRMC,214658.000,A,3357.6182,N,08322.9559,W,14.85,281.32,040815,,,A*4E
$GPGGA,214659.000,3357.6190,N,08322.9607,W,1,07,1.12,230.1,M,-31.4,M,,*52
$GPRMC,214659.000,A,3357.6190,N,08322.9607,W,14.86,280.70,040815,,,A*40
$GPGGA,214700.000,3357.6198,N,08322.9654,W,1,07,1.12,230.1,M,-31.4,M,,*51
$GPRMC,214700.000,A,3357.6198,N,08322.9654,W,14.12,281.91,040815,,,A*40
$GPGGA,214701.000,3357.6206,N,08322.9700,W,1,07,1.11,229.9,M,-31.4,M,,*57
$GPRMC,214701.000,A,3357.6206,N,08322.9700,W,14.07,281.59,040815,,,A*45
$GPGGA,214702.000,3357.6214,N,08322.9745,W,1,07,1.11,230.2,M,-31.4,M,,*55
$GPRMC,214702.000,A,3357.6214,N,08322.9745,W,14.00,282.67,040815,,,A*4D
$GPGGA,214703.000,3357.6223,N,08322.9791,W,1,07,1.12,230.2,M,-31.4,M,,*5A
$GPRMC,214703.000,A,3357.6223,N,08322.9791,W,13.98,284.01,040815,,,A*41
$GPGGA,214704.000,3357.6233,N,08322.9835,W,1,07,1.12,230.1,M,-31.4,M,,*5E
$GPRMC,214704.000,A,3357.6233,N,08322.9835,W,13.95,284.22,040815,,,A*4A
$GPGGA,214705.000,3357.6242,N,08322.9882,W,1,07,1.12,230.3,M,-31.4,M,,*57
$GPRMC,214705.000,A,3357.6242,N,08322.9882,W,14.19,280.96,040815,,,A*49
$GPGGA,214706.000,3357.6250,N,08322.9931,W,1,07,1.12,229.9,M,-31.4,M,,*5C
$GPRMC,214706.000,A,3357.6250,N,08322.9931,W,14.60,280.18,040815,,,A*48
$GPGGA,214707.000,3357.6258,N,08322.9978,W,1,07,1.12,229.8,M,-31.4,M,,*59
$GPRMC,214707.000,A,3357.6258,N,08322.9978,W,14.19,279.96,040815,,,A*42
$GPGGA,214708.000,3357.6265,N,08323.0024,W,1,07,1.12,229.7,M,-31.4,M,,*5F
$GPRMC,214708.000,A,3357.6265,N,08323.0024,W,14.21,280.61,040815,,,A*4E
$GPGGA,214709.000,3357.6273,N,08323.0072,W,1,07,1.12,230.0,M,-31.4,M,,*55
$GPRMC,214709.000,A,3357.6273,N,08323.0072,W,14.73,281.03,040815,,,A*49
$GPGGA,214710.000,3357.6281,N,08323.0120,W,1,07,1.09,230.3,M,-31.4,M,,*5F
$GPRMC,214710.000,A,3357.6281,N,08323.0120,W,14.80,281.00,040815,,,A*45
$GPGGA,214711.000,3357.6289,N,08323.0168,W,1,07,1.12,231.4,M,-31.4,M,,*56
$GPRMC,214711.000,A,3357.6289,N,08323.0168,W,14.85,281.26,040815,,,A*41
$GPGGA,214712.000,3357.6297,N,08323.0214,W,1,07,1.12,231.5,M,-31.4,M,,*53
$GPRMC,214712.000,A,3357.6297,N,08323.0214,W,14.34,280.64,040815,,,A*48
$GPGGA,214713.000,3357.6305,N,08323.0261,W,1,07,1.12,231.6,M,-31.4,M,,*59
$GPRMC,214713.000,A,3357.6305,N,08323.0261,W,14.39,281.41,040815,,,A*4A
$GPGGA,214714.000,3357.6312,N,08323.0308,W,2,07,1.12,231.7,M,-31.4,M,0000,0000*54
$GPRMC,214714.000,A,3357.6312,N,08323.0308,W,14.67,280.77,040815,,,D*4F
$GPGGA,214715.000,3357.6318,N,08323.0355,W,2,07,1.12,232.1,M,-31.4,M,0000,0000*52
$GPRMC,214715.000,A,3357.6318,N,08323.0355,W,15.00,281.10,040815,,,D*4C
$GPGGA,214716.000,3357.6326,N,08323.0402,W,2,07,1.12,232.4,M,-31.4,M,0000,0000*5C
$GPRMC,214716.000,A,3357.6326,N,08323.0402,W,14.94,281.65,040815,,,D*49
$GPGGA,214717.000,3357.6334,N,08323.0449,W,2,07,1.12,233.3,M,-31.4,M,0000,0000*57
$GPRMC,214717.000,A,3357.6334,N,08323.0449,W,14.70,281.77,040815,,,D*4D
$GPGGA,214718.000,3357.6341,N,08323.0497,W,2,07,1.12,233.7,M,-31.4,M,0000,0000*5D
$GPRMC,214718.000,A,3357.6341,N,08323.0497,W,14.73,280.77,040815,,,D*41
$GPGGA,214719.000,3357.6348,N,08323.0545,W,2,07,1.12,233.9,M,-31.4,M,0000,0000*55
$GPRMC,214719.000,A,3357.6348,N,08323.0545,W,14.66,280.46,040815,,,D*41
$GPGGA,214720.000,3357.6356,N,08323.0593,W,2,07,1.09,234.2,M,-31.4,M,0000,0000*5D
$GPRMC,214720.000,A,3357.6356,N,08323.0593,W,14.73,280.34,040815,,,D*4E
$GPGGA,214721.000,3357.6363,N,08323.0642,W,2,07,1.12,234.4,M,-31.4,M,0000,0000*59
$GPRMC,214721.000,A,3357.6363,N,08323.0642,W,14.68,280.56,040815,,,D*48
$GPGGA,214722.000,3357.6371,N,08323.0689,W,2,07,1.12,234.3,M,-31.4,M,0000,0000*59
$GPRMC,214722.000,A,3357.6371,N,08323.0689,W,14.34,282.14,040815,,,D*42
$GPGGA,214723.000,3357.6380,N,08323.0737,W,2,07,1.12,234.5,M,-31.4,M,0000,0000*54
$GPRMC,214723.000,A,3357.6380,N,08323.0737,W,15.09,281.84,040815,,,D*4C
$GPGGA,214724.000,3357.6388,N,08323.0785,W,2,07,1.12,234.7,M,-31.4,M,0000,0000*50
$GPRMC,214724.000,A,3357.6388,N,08323.0785,W,14.83,280.46,040815,,,D*46
$GPGGA,214725.000,3357.6396,N,08323.0833,W,2,07,1.12,234.9,M,-31.4,M,0000,0000*52
$GPRMC,214725.000,A,3357.6396,N,08323.0833,W,14.78,281.41,040815,,,D*48
$GPGGA,214726.000,3357.6403,N,08323.0881,W,2,07,1.12,234.7,M,-31.4,M,0000,0000*5D
$GPRMC,214726.000,A,3357.6403,N,08323.0881,W,15.21,280.98,040815,,,D*41
$GPGGA,214727.000,3357.6411,N,08323.0930,W,2,07,1.12,235.0,M,-31.4,M,0000,0000*52
$GPRMC,214727.000,A,3357.6411,N,08323.0930,W,14.79,279.95,040815,,,D*4F
$GPGGA,214728.000,3357.6417,N,08323.0977,W,2,07,1.09,235.2,M,-31.4,M,0000,0000*50
$GPRMC,214728.000,A,3357.6417,N,08323.0977,W,14.07,278.24,040815,,,D*47
$GPGGA,214729.000,3357.6423,N,08323.1026,W,2,07,1.12,235.6,M,-31.4,M,0000,0000*54
$GPRMC,214729.000,A,3357.6423,N,08323.1026,W,14.67,277.83,040815,,,D*49
$GPGGA,214730.000,3357.6430,N,08323.1074,W,2,07,1.12,236.1,M,-31.4,M,0000,0000*5D
$GPRMC,214730.000,A,3357.6430,N,08323.1074,W,14.41,278.43,040815,,,D*43
$GPGGA,214731.000,3357.6435,N,08323.1122,W,2,07,1.12,236.5,M,-31.4,M,0000,0000*5F
$GPRMC,214731.000,A,3357.6435,N,08323.1122,W,14.71,278.84,040815,,,D*4D
$GPGGA,214732.000,3357.6442,N,08323.1170,W,2,07,1.12,236.8,M,-31.4,M,0000,0000*56
$GPRMC,214732.000,A,3357.6442,N,08323.1170,W,14.40,279.49,040815,,,D*4B
$GPGGA,214733.000,3357.6448,N,08323.1218,W,2,06,1.26,237.1,M,-31.4,M,0000,0000*5E
$GPRMC,214733.000,A,3357.6448,N,08323.1218,W,14.56,278.27,040815,,,D*43
$GPGGA,214734.000,3357.6455,N,08323.1267,W,2,07,1.12,237.5,M,-31.4,M,0000,0000*5F
$GPRMC,214734.000,A,3357.6455,N,08323.1267,W,15.20,279.90,040815,,,D*4D
$GPGGA,214735.000,3357.6462,N,08323.1317,W,2,07,1.09,237.8,M,-31.4,M,0000,0000*5B
$GPRMC,214735.000,A,3357.6462,N,08323.1317,W,15.14,282.26,040815,,,D*40
$GPGGA,214736.000,3357.6472,N,08323.1366,W,2,07,1.12,238.2,M,-31.4,M,0000,0000*50
$GPRMC,214736.000,A,3357.6472,N,08323.1366,W,14.92,283.30,040815,,,D*4D
$GPGGA,214737.000,3357.6481,N,08323.1415,W,2,07,1.12,238.7,M,-31.4,M,0000,0000*5B
$GPRMC,214737.000,A,3357.6481,N,08323.1415,W,15.24,282.71,040815,,,D*4B
$GPGGA,214738.000,3357.6491,N,08323.1465,W,2,07,1.12,239.1,M,-31.4,M,0000,0000*55
$GPRMC,214738.000,A,3357.6491,N,08323.1465,W,15.26,282.89,040815,,,D*47
$GPGGA,214739.000,3357.6500,N,08323.1515,W,2,07,1.09,239.3,M,-31.4,M,0000,0000*53
$GPRMC,214739.000,A,3357.6500,N,08323.1515,W,15.23,281.83,040815,,,D*45
$GPGGA,214740.000,3357.6508,N,08323.1565,W,2,07,1.12,239.6,M,-31.4,M,0000,0000*5D
$GPRMC,214740.000,A,3357.6508,N,08323.1565,W,15.20,280.87,040815,,,D*42
$GPGGA,214741.000,3357.6516,N,08323.1615,W,2,07,1.12,239.6,M,-31.4,M,0000,0000*57
$GPRMC,214741.000,A,3357.6516,N,08323.1615,W,15.22,281.33,040815,,,D*44
$GPGGA,214742.000,3357.6525,N,08323.1665,W,2,07,1.12,240.0,M,-31.4,M,0000,0000*5B
$GPRMC,214742.000,A,3357.6525,N,08323.1665,W,15.42,280.51,040815,,,D*43
$GPGGA,214743.000,3357.6533,N,08323.1717,W,2,07,1.12,240.1,M,-31.4,M,0000,0000*58
