
$GPRMC,122432.586,A,3358.0250,N,08324.2308,W,0.42,327.84,040815,,,A*79
$GPGGA,122434.000,3358.0257,N,08324.2309,W,1,04,2.17,277.6,M,-31.4,M,,*5B
$GPRMC,122434.000,A,3358.0257,N,08324.2309,W,0.36,300.97,040815,,,A*76
$GPGGA,122435.000,3358.0264,N,08324.2306,W,1,04,2.17,282.0,M,-31.4,M,,*59
$GPRMC,122435.000,A,3358.0264,N,08324.2306,W,0.42,265.52,040815,,,A*70
$GPGGA,122436.000,3358.0264,N,08324.2299,W,1,04,2.17,280.6,M,-31.4,M,,*59
$GPRMC,122436.000,A,3358.0264,N,08324.2299,W,0.09,162.53,040815,,,A*7E
$GPGGA,122437.000,3358.0266,N,08324.2294,W,1,04,2.17,278.8,M,-31.4,M,,*5E
$GPRMC,122437.000,A,3358.0266,N,08324.2294,W,0.18,80.30,040815,,,A*48
$GPGGA,122438.000,3358.0265,N,08324.2294,W,1,04,2.17,278.1,M,-31.4,M,,*5B
$GPRMC,122438.000,A,3358.0265,N,08324.2294,W,0.22,62.20,040815,,,A*40
$GPGGA,122439.000,3358.0264,N,08324.2295,W,1,04,2.17,278.0,M,-31.4,M,,*5B
$GPRMC,122439.000,A,3358.0264,N,08324.2295,W,0.09,119.41,040815,,,A*72
$GPGGA,122440.000,3358.0266,N,08324.2293,W,1,04,2.17,277.3,M,-31.4,M,,*5D
$GPRMC,122440.000,A,3358.0266,N,08324.2293,W,0.23,132.16,040815,,,A*7B
$GPGGA,122441.000,3358.0267,N,08324.2295,W,1,04,2.17,275.6,M,-31.4,M,,*5C
$GPRMC,122441.000,A,3358.0267,N,08324.2295,W,0.14,269.45,040815,,,A*72
$GPGGA,122442.000,3358.0267,N,08324.2294,W,1,04,2.17,274.2,M,-31.4,M,,*5B
$GPRMC,122442.000,A,3358.0267,N,08324.2294,W,0.12,305.66,040815,,,A*7C
$GPGGA,122443.000,3358.0268,N,08324.2295,W,1,04,2.16,273.6,M,-31.4,M,,*56
$GPRMC,122443.000,A,3358.0268,N,08324.2295,W,0.25,291.23,040815,,,A*7A
$GPGGA,122444.000,3358.0269,N,08324.2297,W,1,04,2.17,273.0,M,-31.4,M,,*55
$GPRMC,122444.000,A,3358.0269,N,08324.2297,W,0.36,290.52,040815,,,A*7B
$GPGGA,122445.000,3358.0270,N,08324.2298,W,1,04,2.17,272.1,M,-31.4,M,,*53
$GPRMC,122445.000,A,3358.0270,N,08324.2298,W,0.40,312.15,040815,,,A*74
$GPGGA,122446.000,3358.0271,N,08324.2298,W,1,04,2.16,271.2,M,-31.4,M,,*50
$GPRMC,122446.000,A,3358.0271,N,08324.2298,W,0.37,322.52,040815,,,A*76
$GPGGA,122447.000,3358.0270,N,08324.2299,W,1,04,2.16,270.5,M,-31.4,M,,*57
$GPRMC,122447.000,A,3358.0270,N,08324.2299,W,0.22,350.36,040815,,,A*74
$GPGGA,122448.000,3358.0273,N,08324.2297,W,1,04,2.22,270.4,M,-31.4,M,,*53
$GPRMC,122448.000,A,3358.0273,N,08324.2297,W,0.26,16.50,040815,,,A*43
$GPGGA,122449.000,3358.0276,N,08324.2294,W,1,04,2.16,270.8,M,-31.4,M,,*5F
$GPRMC,122449.000,A,3358.0276,N,08324.2294,W,0.31,25.69,040815,,,A*48
$GPGGA,122450.000,3358.0275,N,08324.2292,W,1,05,1.74,270.8,M,-31.4,M,,*54
$GPRMC,122450.000,A,3358.0275,N,08324.2292,W,0.36,10.03,040815,,,A*48
$GPGGA,122451.000,3358.0268,N,08324.2296,W,1,05,1.89,265.0,M,-31.4,M,,*53
$GPRMC,122451.000,A,3358.0268,N,08324.2296,W,0.26,13.45,040815,,,A*41
$GPGGA,122452.000,3358.0267,N,08324.2297,W,1,05,1.89,262.5,M,-31.4,M,,*5C
$GPRMC,122452.000,A,3358.0267,N,08324.2297,W,0.17,19.44,040815,,,A*45
$GPGGA,122453.000,3358.0265,N,08324.2299,W,1,05,1.74,261.3,M,-31.4,M,,*56
$GPRMC,122453.000,A,3358.0265,N,08324.2299,W,0.07,134.66,040815,,,A*77
$GPGGA,122454.000,3358.0265,N,08324.2298,W,1,05,1.74,260.3,M,-31.4,M,,*51
$GPRMC,122454.000,A,3358.0265,N,08324.2298,W,0.10,85.41,040815,,,A*49
$GPGGA,122455.000,3358.0264,N,08324.2298,W,1,05,1.74,259.1,M,-31.4,M,,*59
$GPRMC,122455.000,A,3358.0264,N,08324.2298,W,0.03,83.34,040815,,,A*4F
$GPGGA,122456.000,3358.0264,N,08324.2303,W,1,05,1.74,258.4,M,-31.4,M,,*5D
$GPRMC,122456.000,A,3358.0264,N,08324.2303,W,0.18,298.57,040815,,,A*78
$GPGGA,122457.000,3358.0263,N,08324.2298,W,1,05,1.74,257.5,M,-31.4,M,,*56
$GPRMC,122457.000,A,3358.0263,N,08324.2298,W,0.05,118.68,040815,,,A*76
$GPGGA,122458.000,3358.0262,N,08324.2298,W,1,05,1.74,256.7,M,-31.4,M,,*5B
$GPRMC,122458.000,A,3358.0262,N,08324.2298,W,0.15,133.21,040815,,,A*7D
$GPGGA,122459.000,3358.0261,N,08324.2298,W,1,05,1.74,256.2,M,-31.4,M,,*5C
$GPRMC,122459.000,A,3358.0261,N,08324.2298,W,0.13,167.47,040815,,,A*78
$GPGGA,122500.000,3358.0260,N,08324.2297,W,1,05,1.74,256.3,M,-31.4,M,,*5E
$GPRMC,122500.000,A,3358.0260,N,08324.2297,W,0.19,145.25,040815,,,A*75
$GPGGA,122501.000,3358.0260,N,08324.2292,W,1,05,1.74,256.2,M,-31.4,M,,*5B
$GPRMC,122501.000,A,3358.0260,N,08324.2292,W,0.23,107.82,040815,,,A*73
$GPGGA,122502.000,3358.0258,N,08324.2294,W,1,05,1.74,255.4,M,-31.4,M,,*50
$GPRMC,122502.000,A,3358.0258,N,08324.2294,W,0.15,174.82,040815,,,A*7C
$GPGGA,122503.000,3358.0255,N,08324.2289,W,1,05,1.74,255.3,M,-31.4,M,,*57
$GPRMC,122503.000,A,3358.0255,N,08324.2289,W,0.28,140.41,040815,,,A*7A
$GPGGA,122504.000,3358.0252,N,08324.2287,W,1,05,1.74,254.1,M,-31.4,M,,*5A
$GPRMC,122504.000,A,3358.0252,N,08324.2287,W,0.49,149.58,040815,,,A*72
$GPGGA,122505.000,3358.0249,N,08324.2282,W,1,05,1.73,253.5,M,-31.4,M,,*50
$GPRMC,122505.000,A,3358.0249,N,08324.2282,W,0.67,145.37,040815,,,A*75
$GPGGA,122506.000,3358.0244,N,08324.2281,W,1,05,1.73,253.0,M,-31.4,M,,*58
$GPRMC,122506.000,A,3358.0244,N,08324.2281,W,0.59,158.18,040815,,,A*74
$GPGGA,122507.000,3358.0240,N,08324.2275,W,1,05,1.73,253.4,M,-31.4,M,,*52
$GPRMC,122507.000,A,3358.0240,N,08324.2275,W,0.73,148.11,040815,,,A*7A
$GPGGA,122508.000,3358.0236,N,08324.2275,W,1,05,1.73,253.3,M,-31.4,M,,*5B
$GPRMC,122508.000,A,3358.0236,N,08324.2275,W,0.78,151.16,040815,,,A*70
$GPGGA,122509.000,3358.0231,N,08324.2274,W,1,05,1.73,252.8,M,-31.4,M,,*56
$GPRMC,122509.000,A,3358.0231,N,08324.2274,W,0.89,148.38,040815,,,A*7D
$GPGGA,122510.000,3358.0229,N,08324.2274,W,1,05,1.73,252.2,M,-31.4,M,,*5D
$GPRMC,122510.000,A,3358.0229,N,08324.2274,W,0.39,148.22,040815,,,A*7C
$GPGGA,122511.000,3358.0227,N,08324.2274,W,1,05,1.73,251.8,M,-31.4,M,,*5B
$GPRMC,122511.000,A,3358.0227,N,08324.2274,W,0.27,145.89,040815,,,A*70
$GPGGA,122512.000,3358.0225,N,08324.2275,W,1,05,1.73,251.6,M,-31.4,M,,*55
$GPRMC,122512.000,A,3358.0225,N,08324.2275,W,0.27,142.91,040815,,,A*7E
$GPGGA,122513.000,3358.0224,N,08324.2279,W,1,05,1.73,251.3,M,-31.4,M,,*5C
$GPRMC,122513.000,A,3358.0224,N,08324.2279,W,0.07,153.05,040815,,,A*7D
$GPGGA,122514.000,3358.0224,N,08324.2279,W,1,05,1.73,251.3,M,-31.4,M,,*5B
$GPRMC,122514.000,A,3358.0224,N,08324.2279,W,0.02,289.74,040815,,,A*7D
$GPGGA,122515.000,3358.0224,N,08324.2279,W,1,05,1.73,251.3,M,-31.4,M,,*5A
$GPRMC,122515.000,A,3358.0224,N,08324.2279,W,0.01,121.59,040815,,,A*71
$GPGGA,122516.000,3358.0224,N,08324.2279,W,1,05,1.73,251.3,M,-31.4,M,,*59
$GPRMC,122516.000,A,3358.0224,N,08324.2279,W,0.16,10.91,040815,,,A*43
$GPGGA,122517.000,3358.0224,N,08324.2279,W,1,05,1.88,251.3,M,-31.4,M,,*5C
$GPRMC,122517.000,A,3358.0224,N,08324.2279,W,0.24,312.92,040815,,,A*71
$GPGGA,122518.000,3358.0225,N,08324.2279,W,1,05,1.73,251.3,M,-31.4,M,,*56
$GPRMC,122518.000,A,3358.0225,N,08324.2279,W,0.19,310.57,040815,,,A*7A
$GPGGA,122519.000,3358.0225,N,08324.2280,W,1,05,1.73,251.3,M,-31.4,M,,*51
$GPRMC,122519.000,A,3358.0225,N,08324.2280,W,0.34,295.70,040815,,,A*7B
$GPGGA,122520.000,3358.0226,N,08324.2280,W,1,05,1.73,251.3,M,-31.4,M,,*58
$GPRMC,122520.000,A,3358.0226,N,08324.2280,W,0.51,18.41,040815,,,A*44
$GPGGA,122521.000,3358.0227,N,08324.2280,W,1,05,1.73,251.3,M,-31.4,M,,*58
$GPRMC,122521.000,A,3358.0227,N,08324.2280,W,0.09,58.14,040815,,,A*4D
$GPGGA,122522.000,3358.0227,N,08324.2280,W,1,05,1.73,251.3,M,-31.4,M,,*5B
$GPRMC,122522.000,A,3358.0227,N,08324.2280,W,0.48,182.05,040815,,,A*7D
$GPGGA,122523.000,3358.0226,N,08324.2280,W,1,05,1.73,251.3,M,-31.4,M,,*5B
$GPRMC,122523.000,A,3358.0226,N,08324.2280,W,0.28,205.68,040815,,,A*7C
$GPGGA,122524.000,3358.0225,N,08324.2280,W,1,05,1.73,251.3,M,-31.4,M,,*5F
$GPRMC,122524.000,A,3358.0225,N,08324.2280,W,0.38,196.07,040815,,,A*79
$GPGGA,122525.000,3358.0224,N,08324.2280,W,1,05,1.73,251.3,M,-31.4,M,,*5F
$GPRMC,122525.000,A,3358.0224,N,08324.2280,W,0.26,200.89,040815,,,A*7C
$GPGGA,122526.000,3358.0223,N,08324.2281,W,1,05,1.73,251.3,M,-31.4,M,,*5A
$GPRMC,122526.000,A,3358.0223,N,08324.2281,W,0.09,196.78,040815,,,A*76
$GPGGA,122527.000,3358.0223,N,08324.2281,W,1,05,1.73,251.2,M,-31.4,M,,*5A
$GPRMC,122527.000,A,3358.0223,N,08324.2281,W,0.09,193.40,040815,,,A*79
$GPGGA,122528.000,3358.0223,N,08324.2281,W,1,05,1.73,251.2,M,-31.4,M,,*55
$GPRMC,122528.000,A,3358.0223,N,08324.2281,W,0.18,190.37,040815,,,A*75
$GPGGA,122529.000,3358.0222,N,08324.2281,W,1,05,1.73,251.2,M,-31.4,M,,*55
$GPRMC,122529.000,A,3358.0222,N,08324.2281,W,0.66,187.76,040815,,,A*7F
$GPGGA,122530.000,3358.0215,N,08324.2279,W,1,05,1.73,250.9,M,-31.4,M,,*54
$GPRMC,122530.000,A,3358.0215,N,08324.2279,W,1.46,176.81,040815,,,A*71
$GPGGA,122531.000,3358.0209,N,08324.2277,W,1,05,1.73,250.7,M,-31.4,M,,*58
$GPRMC,122531.000,A,3358.0209,N,08324.2277,W,1.87,176.89,040815,,,A*76
$GPGGA,122532.000,3358.0202,N,08324.2280,W,1,05,1.73,250.4,M,-31.4,M,,*5B
$GPRMC,122532.000,A,3358.0202,N,08324.2280,W,2.09,184.22,040815,,,A*7F
$GPGGA,122533.000,3358.0185,N,08324.2295,W,1,05,1.73,250.3,M,-31.4,M,,*55
$GPRMC,122533.000,A,3358.0185,N,08324.2295,W,3.69,200.00,040815,,,A*7E
$GPGGA,122534.000,3358.0172,N,08324.2298,W,1,05,1.73,250.2,M,-31.4,M,,*56
$GPRMC,122534.000,A,3358.0172,N,08324.2298,W,5.32,189.55,040815,,,A*76
$GPGGA,122535.000,3358.0150,N,08324.2295,W,1,05,1.87,250.0,M,-31.4,M,,*53
$GPRMC,122535.000,A,3358.0150,N,08324.2295,W,8.91,159.80,040815,,,A*7B
$GPGGA,122536.000,3358.0127,N,08324.2278,W,1,05,1.87,249.9,M,-31.4,M,,*52
$GPRMC,122536.000,A,3358.0127,N,08324.2278,W,9.41,142.47,040815,,,A*76
$GPGGA,122537.000,3358.0105,N,08324.2255,W,1,05,1.73,249.8,M,-31.4,M,,*56
$GPRMC,122537.000,A,3358.0105,N,08324.2255,W,9.93,138.11,040815,,,A*79
$GPGGA,122538.000,3358.0083,N,08324.2231,W,1,05,1.87,250.0,M,-31.4,M,,*5F
$GPRMC,122538.000,A,3358.0083,N,08324.2231,W,10.21,136.00,040815,,,A*44
$GPGGA,122539.000,3358.0062,N,08324.2207,W,1,05,1.73,250.0,M,-31.4,M,,*5F
$GPRMC,122539.000,A,3358.0062,N,08324.2207,W,9.67,136.90,040815,,,A*7C
$GPGGA,122540.000,3358.0043,N,08324.2182,W,1,05,1.73,250.0,M,-31.4,M,,*5C
$GPRMC,122540.000,A,3358.0043,N,08324.2182,W,9.31,131.61,040815,,,A*75
$GPGGA,122541.000,3358.0026,N,08324.2157,W,1,05,1.73,250.0,M,-31.4,M,,*56
$GPRMC,122541.000,A,3358.0026,N,08324.2157,W,8.86,128.43,040815,,,A*7A
$GPGGA,122542.000,3358.0011,N,08324.2135,W,1,05,1.73,250.1,M,-31.4,M,,*54
$GPRMC,122542.000,A,3358.0011,N,08324.2135,W,7.68,127.06,040815,,,A*78
$GPGGA,122543.000,3357.9999,N,08324.2116,W,1,05,1.73,250.2,M,-31.4,M,,*58
$GPRMC,122543.000,A,3357.9999,N,08324.2116,W,5.85,121.11,040815,,,A*76
$GPGGA,122544.000,3357.9995,N,08324.2097,W,1,05,1.73,250.0,M,-31.4,M,,*59
$GPRMC,122544.000,A,3357.9995,N,08324.2097,W,4.79,95.59,040815,,,A*45
$GPGGA,122545.000,3357.9995,N,08324.2082,W,1,05,1.73,249.9,M,-31.4,M,,*5D
$GPRMC,122545.000,A,3357.9995,N,08324.2082,W,4.84,76.41,040815,,,A*46
$GPGGA,122546.000,3358.0003,N,08324.2061,W,1,05,1.73,249.8,M,-31.4,M,,*52
$GPRMC,122546.000,A,3358.0003,N,08324.2061,W,6.71,57.29,040815,,,A*4D
$GPGGA,122547.000,3358.0017,N,08324.2036,W,1,05,1.73,249.7,M,-31.4,M,,*5B
$GPRMC,122547.000,A,3358.0017,N,08324.2036,W,9.13,52.42,040815,,,A*48
$GPGGA,122548.000,3358.0037,N,08324.2008,W,1,05,1.73,249.4,M,-31.4,M,,*58
$GPRMC,122548.000,A,3358.0037,N,08324.2008,W,10.94,44.11,040815,,,A*7E
$GPGGA,122549.000,3358.0062,N,08324.1981,W,1,05,1.73,249.2,M,-31.4,M,,*54
$GPRMC,122549.000,A,3358.0062,N,08324.1981,W,11.52,41.00,040815,,,A*7A
$GPGGA,122550.000,3358.0091,N,08324.1945,W,1,06,1.34,249.6,M,-31.4,M,,*5C
$GPRMC,122550.000,A,3358.0091,N,08324.1945,W,12.27,40.18,040815,,,A*7F
$GPGGA,122551.000,3358.0120,N,08324.1914,W,1,06,1.34,249.9,M,-31.4,M,,*5D
$GPRMC,122551.000,A,3358.0120,N,08324.1914,W,11.98,36.77,040815,,,A*7E
$GPGGA,122552.000,3358.0146,N,08324.1888,W,1,06,1.34,250.2,M,-31.4,M,,*59
$GPRMC,122552.000,A,3358.0146,N,08324.1888,W,11.30,37.61,040815,,,A*7D
$GPGGA,122553.000,3358.0171,N,08324.1863,W,1,06,1.34,250.2,M,-31.4,M,,*59
$GPRMC,122553.000,A,3358.0171,N,08324.1863,W,10.41,41.57,040815,,,A*7E
$GPGGA,122554.000,3358.0199,N,08324.1837,W,1,06,1.34,250.3,M,-31.4,M,,*58
$GPRMC,122554.000,A,3358.0199,N,08324.1837,W,11.94,37.55,040815,,,A*74
$GPGGA,122555.000,3358.0225,N,08324.1808,W,1,06,1.34,250.4,M,-31.4,M,,*56
$GPRMC,122555.000,A,3358.0225,N,08324.1808,W,12.80,40.60,040815,,,A*7D
$GPGGA,122556.000,3358.0254,N,08324.1780,W,1,06,1.34,250.4,M,-31.4,M,,*5C
$GPRMC,122556.000,A,3358.0254,N,08324.1780,W,13.24,38.96,040815,,,A*7E
$GPGGA,122557.000,3358.0283,N,08324.1751,W,1,06,1.34,250.3,M,-31.4,M,,*5C
$GPRMC,122557.000,A,3358.0283,N,08324.1751,W,13.27,36.87,040815,,,A*74
$GPGGA,122558.000,3358.0313,N,08324.1721,W,1,06,1.34,250.2,M,-31.4,M,,*5D
$GPRMC,122558.000,A,3358.0313,N,08324.1721,W,13.78,38.70,040815,,,A*78
$GPGGA,122559.000,3358.0345,N,08324.1691,W,1,06,1.34,250.2,M,-31.4,M,,*55
$GPRMC,122559.000,A,3358.0345,N,08324.1691,W,13.80,39.48,040815,,,A*7D
$GPGGA,122600.000,3358.0375,N,08324.1662,W,1,06,1.34,250.3,M,-31.4,M,,*54
$GPRMC,122600.000,A,3358.0375,N,08324.1662,W,13.43,38.31,040815,,,A*7D
$GPGGA,122601.000,3358.0403,N,08324.1632,W,1,06,1.34,250.4,M,-31.4,M,,*51
$GPRMC,122601.000,A,3358.0403,N,08324.1632,W,13.25,43.49,040815,,,A*7C
$GPGGA,122602.000,3358.0430,N,08324.1599,W,1,06,1.34,250.5,M,-31.4,M,,*51
$GPRMC,122602.000,A,3358.0430,N,08324.1599,W,13.27,45.56,040815,,,A*77
$GPGGA,122603.000,3358.0456,N,08324.1567,W,1,06,1.34,250.6,M,-31.4,M,,*52
$GPRMC,122603.000,A,3358.0456,N,08324.1567,W,13.22,46.13,040815,,,A*70
$GPGGA,122604.000,3358.0482,N,08324.1536,W,1,06,1.34,250.6,M,-31.4,M,,*58
$GPRMC,122604.000,A,3358.0482,N,08324.1536,W,12.73,45.99,040815,,,A*7E
$GPGGA,122605.000,3358.0508,N,08324.1502,W,1,06,1.34,250.6,M,-31.4,M,,*5D
$GPRMC,122605.000,A,3358.0508,N,08324.1502,W,12.11,46.96,040815,,,A*73
$GPGGA,122606.000,3358.0532,N,08324.1477,W,1,06,1.34,250.5,M,-31.4,M,,*57
$GPRMC,122606.000,A,3358.0532,N,08324.1477,W,10.12,45.55,040815,,,A*77
$GPGGA,122607.000,3358.0549,N,08324.1458,W,1,06,1.34,250.4,M,-31.4,M,,*56
$GPRMC,122607.000,A,3358.0549,N,08324.1458,W,8.16,50.72,040815,,,A*4B
$GPGGA,122608.000,3358.0560,N,08324.1442,W,1,06,1.34,250.4,M,-31.4,M,,*59
$GPRMC,122608.000,A,3358.0560,N,08324.1442,W,6.10,60.11,040815,,,A*4A
$GPGGA,122609.000,3358.0565,N,08324.1428,W,1,06,1.34,250.4,M,-31.4,M,,*51
$GPRMC,122609.000,A,3358.0565,N,08324.1428,W,5.77,78.11,040815,,,A*49
$GPGGA,122610.000,3358.0564,N,08324.1409,W,1,06,1.34,250.3,M,-31.4,M,,*5C
$GPRMC,122610.000,A,3358.0564,N,08324.1409,W,7.75,102.88,040815,,,A*7F
$GPGGA,122611.000,3358.0549,N,08324.1388,W,1,06,1.74,250.1,M,-31.4,M,,*5A
$GPRMC,122611.000,A,3358.0549,N,08324.1388,W,10.52,124.13,040815,,,A*4A
$GPGGA,122612.000,3358.0525,N,08324.1365,W,1,06,1.34,250.0,M,-31.4,M,,*55
$GPRMC,122612.000,A,3358.0525,N,08324.1365,W,13.56,123.47,040815,,,A*41
$GPGGA,122613.000,3358.0502,N,08324.1334,W,1,06,1.34,249.6,M,-31.4,M,,*5B
$GPRMC,122613.000,A,3358.0502,N,08324.1334,W,11.48,126.09,040815,,,A*43
$GPGGA,122614.000,3358.0473,N,08324.1298,W,1,06,1.34,249.5,M,-31.4,M,,*5F
$GPRMC,122614.000,A,3358.0473,N,08324.1298,W,17.12,120.00,040815,,,A*42
$GPGGA,122615.000,3358.0444,N,08324.1254,W,1,06,1.74,249.1,M,-31.4,M,,*5A
$GPRMC,122615.000,A,3358.0444,N,08324.1254,W,17.12,127.20,040815,,,A*42
$GPGGA,122616.000,3358.0415,N,08324.1208,W,1,06,1.34,248.4,M,-31.4,M,,*54
$GPRMC,122616.000,A,3358.0415,N,08324.1208,W,17.19,127.85,040815,,,A*48
$GPGGA,122617.000,3358.0384,N,08324.1163,W,1,06,1.34,247.9,M,-31.4,M,,*56
$GPRMC,122617.000,A,3358.0384,N,08324.1163,W,17.17,130.38,040815,,,A*46
$GPGGA,122618.000,3358.0352,N,08324.1117,W,1,06,1.34,247.4,M,-31.4,M,,*5C
$GPRMC,122618.000,A,3358.0352,N,08324.1117,W,17.33,129.78,040815,,,A*4B
$GPGGA,122619.000,3358.0320,N,08324.1072,W,1,06,1.34,247.1,M,-31.4,M,,*5F
$GPRMC,122619.000,A,3358.0320,N,08324.1072,W,17.39,131.76,040815,,,A*40
$GPGGA,122620.000,3358.0285,N,08324.1027,W,1,05,1.72,246.9,M,-31.4,M,,*53
$GPRMC,122620.000,A,3358.0285,N,08324.1027,W,18.24,133.77,040815,,,A*44
$GPGGA,122621.000,3358.0250,N,08324.0979,W,1,06,1.34,246.7,M,-31.4,M,,*56
$GPRMC,122621.000,A,3358.0250,N,08324.0979,W,18.74,131.29,040815,,,A*42
$GPGGA,122622.000,3358.0215,N,08324.0928,W,1,06,1.34,246.5,M,-31.4,M,,*52
$GPRMC,122622.000,A,3358.0215,N,08324.0928,W,19.51,130.32,040815,,,A*49
$GPGGA,122623.000,3358.0180,N,08324.0877,W,1,06,1.34,246.5,M,-31.4,M,,*57
$GPRMC,122623.000,A,3358.0180,N,08324.0877,W,19.93,129.12,040815,,,A*48
$GPGGA,122624.000,3358.0144,N,08324.0825,W,1,06,1.34,246.4,M,-31.4,M,,*5E
$GPRMC,122624.000,A,3358.0144,N,08324.0825,W,20.22,129.17,040815,,,A*45
$GPGGA,122625.000,3358.0110,N,08324.0772,W,1,05,1.72,246.3,M,-31.4,M,,*55
$GPRMC,122625.000,A,3358.0110,N,08324.0772,W,20.03,126.97,040815,,,A*4C
$GPGGA,122626.000,3358.0082,N,08324.0713,W,1,06,1.34,246.4,M,-31.4,M,,*5D
$GPRMC,122626.000,A,3358.0082,N,08324.0713,W,20.67,117.48,040815,,,A*40
$GPGGA,122627.000,3358.0059,N,08324.0651,W,1,06,1.34,246.2,M,-31.4,M,,*5B
$GPRMC,122627.000,A,3358.0059,N,08324.0651,W,20.74,111.28,040815,,,A*42
$GPGGA,122628.000,3358.0043,N,08324.0582,W,1,06,1.34,245.9,M,-31.4,M,,*5A
$GPRMC,122628.000,A,3358.0043,N,08324.0582,W,21.32,103.72,040815,,,A*44
$GPGGA,122629.000,3358.0032,N,08324.0510,W,1,06,1.34,245.5,M,-31.4,M,,*5A
$GPRMC,122629.000,A,3358.0032,N,08324.0510,W,21.88,99.85,040815,,,A*73
$GPGGA,122630.000,3358.0025,N,08324.0432,W,1,06,1.34,245.2,M,-31.4,M,,*52
$GPRMC,122630.000,A,3358.0025,N,08324.0432,W,23.07,97.40,040815,,,A*7E
$GPGGA,122631.000,3358.0016,N,08324.0354,W,1,06,1.34,244.9,M,-31.4,M,,*5E
$GPRMC,122631.000,A,3358.0016,N,08324.0354,W,23.41,98.98,040815,,,A*70
$GPGGA,122632.000,3358.0006,N,08324.0278,W,1,06,1.34,244.5,M,-31.4,M,,*5F
$GPRMC,122632.000,A,3358.0006,N,08324.0278,W,24.16,98.42,040815,,,A*7F
$GPGGA,122633.000,3357.9998,N,08324.0196,W,1,06,1.34,244.1,M,-31.4,M,,*51
$GPRMC,122633.000,A,3357.9998,N,08324.0196,W,25.23,95.99,040815,,,A*79
$GPGGA,122634.000,3357.9992,N,08324.0111,W,1,06,1.34,243.9,M,-31.4,M,,*5C
$GPRMC,122634.000,A,3357.9992,N,08324.0111,W,25.29,97.19,040815,,,A*7B
$GPGGA,122635.000,3357.9982,N,08324.0030,W,1,06,1.34,243.7,M,-31.4,M,,*50
$GPRMC,122635.000,A,3357.9982,N,08324.0030,W,25.27,97.08,040815,,,A*77
$GPGGA,122636.000,3357.9972,N,08323.9950,W,1,06,1.34,243.2,M,-31.4,M,,*58
$GPRMC,122636.000,A,3357.9972,N,08323.9950,W,24.44,98.69,040815,,,A*76
$GPGGA,122637.000,3357.9961,N,08323.9870,W,1,06,1.34,242.7,M,-31.4,M,,*5C
$GPRMC,122637.000,A,3357.9961,N,08323.9870,W,24.61,99.04,040815,,,A*7B
$GPGGA,122638.000,3357.9952,N,08323.9787,W,1,06,1.73,242.0,M,-31.4,M,,*50
$GPRMC,122638.000,A,3357.9952,N,08323.9787,W,25.37,96.74,040815,,,A*79
$GPGGA,122639.000,3357.9944,N,08323.9702,W,1,06,1.34,241.3,M,-31.4,M,,*58
$GPRMC,122639.000,A,3357.9944,N,08323.9702,W,25.40,97.13,040815,,,A*72
$GPGGA,122640.000,3357.9935,N,08323.9617,W,1,06,1.34,240.6,M,-31.4,M,,*51
$GPRMC,122640.000,A,3357.9935,N,08323.9617,W,25.35,97.18,040815,,,A*76
$GPGGA,122641.000,3357.9927,N,08323.9534,W,1,06,1.34,240.0,M,-31.4,M,,*57
$GPRMC,122641.000,A,3357.9927,N,08323.9534,W,25.39,96.60,040815,,,A*74
$GPGGA,122642.000,3357.9919,N,08323.9450,W,1,06,1.34,239.2,M,-31.4,M,,*56
$GPRMC,122642.000,A,3357.9919,N,08323.9450,W,25.64,96.10,040815,,,A*76
$GPGGA,122643.000,3357.9913,N,08323.9364,W,1,06,1.34,238.5,M,-31.4,M,,*5B
$GPRMC,122643.000,A,3357.9913,N,08323.9364,W,26.56,94.34,040815,,,A*7B
$GPGGA,122644.000,3357.9908,N,08323.9275,W,1,06,1.34,237.7,M,-31.4,M,,*5A
$GPRMC,122644.000,A,3357.9908,N,08323.9275,W,26.10,94.64,040815,,,A*70
$GPGGA,122645.000,3357.9901,N,08323.9190,W,1,06,1.34,237.1,M,-31.4,M,,*5C
$GPRMC,122645.000,A,3357.9901,N,08323.9190,W,25.19,97.31,040815,,,A*79
$GPGGA,122646.000,3357.9893,N,08323.9107,W,1,06,1.34,236.4,M,-31.4,M,,*5F
$GPRMC,122646.000,A,3357.9893,N,08323.9107,W,25.71,96.98,040815,,,A*72
$GPGGA,122647.000,3357.9884,N,08323.9022,W,1,06,1.34,235.7,M,-31.4,M,,*5E
$GPRMC,122647.000,A,3357.9884,N,08323.9022,W,26.25,96.55,040815,,,A*70
$GPGGA,122648.000,3357.9876,N,08323.8935,W,1,06,1.34,234.9,M,-31.4,M,,*5D
$GPRMC,122648.000,A,3357.9876,N,08323.8935,W,25.94,95.88,040815,,,A*76
$GPGGA,122649.000,3357.9868,N,08323.8847,W,1,06,1.34,234.1,M,-31.4,M,,*5F
$GPRMC,122649.000,A,3357.9868,N,08323.8847,W,24.61,96.81,040815,,,A*7D
$GPGGA,122650.000,3357.9859,N,08323.8763,W,1,05,1.47,233.7,M,-31.4,M,,*5A
$GPRMC,122650.000,A,3357.9859,N,08323.8763,W,23.54,97.62,040815,,,A*73
$GPGGA,122651.000,3357.9851,N,08323.8678,W,1,06,1.34,233.4,M,-31.4,M,,*5C
$GPRMC,122651.000,A,3357.9851,N,08323.8678,W,21.92,99.57,040815,,,A*71
$GPGGA,122652.000,3357.9845,N,08323.8595,W,1,06,1.34,233.4,M,-31.4,M,,*5A
$GPRMC,122652.000,A,3357.9845,N,08323.8595,W,21.90,95.96,040815,,,A*74
$GPGGA,122653.000,3357.9839,N,08323.8522,W,1,06,1.34,233.8,M,-31.4,M,,*50
$GPRMC,122653.000,A,3357.9839,N,08323.8522,W,21.55,95.99,040815,,,A*74
$GPGGA,122654.000,3357.9833,N,08323.8449,W,1,05,1.47,234.2,M,-31.4,M,,*5B
$GPRMC,122654.000,A,3357.9833,N,08323.8449,W,21.50,94.96,040815,,,A*7E
$GPGGA,122655.000,3357.9825,N,08323.8380,W,1,06,1.34,234.5,M,-31.4,M,,*5F
$GPRMC,122655.000,A,3357.9825,N,08323.8380,W,20.73,98.79,040815,,,A*77
$GPGGA,122656.000,3357.9814,N,08323.8314,W,1,06,1.34,234.9,M,-31.4,M,,*5F
$GPRMC,122656.000,A,3357.9814,N,08323.8314,W,19.98,102.51,040815,,,A*4C
$GPGGA,122657.000,3357.9802,N,08323.8251,W,1,06,1.33,235.4,M,-31.4,M,,*52
$GPRMC,122657.000,A,3357.9802,N,08323.8251,W,18.72,102.14,040815,,,A*4E
$GPGGA,122658.000,3357.9792,N,08323.8190,W,1,06,1.34,235.9,M,-31.4,M,,*5F
$GPRMC,122658.000,A,3357.9792,N,08323.8190,W,18.15,100.87,040815,,,A*40
$GPGGA,122659.000,3357.9782,N,08323.8132,W,1,06,1.34,236.3,M,-31.4,M,,*5E
$GPRMC,122659.000,A,3357.9782,N,08323.8132,W,17.17,100.28,040815,,,A*40
$GPGGA,122700.000,3357.9774,N,08323.8078,W,1,06,1.33,236.8,M,-31.4,M,,*59
$GPRMC,122700.000,A,3357.9774,N,08323.8078,W,16.71,97.69,040815,,,A*70
$GPGGA,122701.000,3357.9764,N,08323.8032,W,1,06,1.34,237.5,M,-31.4,M,,*5C
$GPRMC,122701.000,A,3357.9764,N,08323.8032,W,16.00,97.11,040815,,,A*77
$GPGGA,122702.000,3357.9760,N,08323.7985,W,1,06,1.34,238.1,M,-31.4,M,,*5A
$GPRMC,122702.000,A,3357.9760,N,08323.7985,W,15.93,93.37,040815,,,A*73
$GPGGA,122703.000,3357.9754,N,08323.7939,W,1,06,1.34,238.8,M,-31.4,M,,*52
$GPRMC,122703.000,A,3357.9754,N,08323.7939,W,14.98,95.20,040815,,,A*78
$GPGGA,122704.000,3357.9751,N,08323.7893,W,1,06,1.34,239.5,M,-31.4,M,,*5D
$GPRMC,122704.000,A,3357.9751,N,08323.7893,W,14.32,92.89,040815,,,A*7F
$GPGGA,122705.000,3357.9748,N,08323.7846,W,1,06,1.34,240.2,M,-31.4,M,,*55
$GPRMC,122705.000,A,3357.9748,N,08323.7846,W,14.89,92.03,040815,,,A*7C
$GPGGA,122706.000,3357.9744,N,08323.7799,W,1,05,1.47,240.8,M,-31.4,M,,*5A
$GPRMC,122706.000,A,3357.9744,N,08323.7799,W,15.20,92.40,040815,,,A*7B
$GPGGA,122707.000,3357.9741,N,08323.7754,W,1,06,1.33,241.4,M,-31.4,M,,*52
$GPRMC,122707.000,A,3357.9741,N,08323.7754,W,14.95,91.78,040815,,,A*79
$GPGGA,122708.000,3357.9734,N,08323.7715,W,1,05,1.47,242.0,M,-31.4,M,,*5D
$GPRMC,122708.000,A,3357.9734,N,08323.7715,W,13.20,98.09,040815,,,A*77
$GPGGA,122709.000,3357.9729,N,08323.7675,W,1,05,1.47,242.4,M,-31.4,M,,*53
$GPRMC,122709.000,A,3357.9729,N,08323.7675,W,12.55,97.34,040815,,,A*7F
$GPGGA,122710.000,3357.9724,N,08323.7638,W,1,06,1.34,242.9,M,-31.4,M,,*55
$GPRMC,122710.000,A,3357.9724,N,08323.7638,W,11.77,96.83,040815,,,A*7D
$GPGGA,122711.000,3357.9719,N,08323.7602,W,1,06,1.33,243.3,M,-31.4,M,,*5F
$GPRMC,122711.000,A,3357.9719,N,08323.7602,W,11.09,97.03,040815,,,A*7B
$GPGGA,122712.000,3357.9715,N,08323.7565,W,1,06,1.33,243.9,M,-31.4,M,,*58
$GPRMC,122712.000,A,3357.9715,N,08323.7565,W,12.05,96.65,040815,,,A*78
$GPGGA,122713.000,3357.9710,N,08323.7526,W,1,06,1.33,244.5,M,-31.4,M,,*50
$GPRMC,122713.000,A,3357.9710,N,08323.7526,W,13.34,97.25,040815,,,A*7D
$GPGGA,122714.000,3357.9704,N,08323.7484,W,1,06,1.33,244.9,M,-31.4,M,,*57
$GPRMC,122714.000,A,3357.9704,N,08323.7484,W,14.12,96.45,040815,,,A*72
$GPGGA,122715.000,3357.9699,N,08323.7439,W,1,06,1.33,245.3,M,-31.4,M,,*5E
$GPRMC,122715.000,A,3357.9699,N,08323.7439,W,14.16,97.41,040815,,,A*71
$GPGGA,122716.000,3357.9695,N,08323.7391,W,1,06,1.33,245.8,M,-31.4,M,,*5F
$GPRMC,122716.000,A,3357.9695,N,08323.7391,W,14.93,95.43,040815,,,A*76
$GPGGA,122717.000,3357.9691,N,08323.7342,W,1,06,1.33,246.4,M,-31.4,M,,*5B
$GPRMC,122717.000,A,3357.9691,N,08323.7342,W,15.44,94.05,040815,,,A*75
$GPGGA,122718.000,3357.9684,N,08323.7299,W,1,06,1.33,246.8,M,-31.4,M,,*5B
$GPRMC,122718.000,A,3357.9684,N,08323.7299,W,13.50,95.84,040815,,,A*72
$GPGGA,122719.000,3357.9678,N,08323.7255,W,1,06,1.34,247.3,M,-31.4,M,,*54
$GPRMC,122719.000,A,3357.9678,N,08323.7255,W,13.52,99.24,040815,,,A*74
$GPGGA,122720.000,3357.9671,N,08323.7213,W,1,06,1.34,247.7,M,-31.4,M,,*51
$GPRMC,122720.000,A,3357.9671,N,08323.7213,W,12.95,96.44,040815,,,A*76
$GPGGA,122721.000,3357.9668,N,08323.7169,W,1,06,1.33,248.1,M,-31.4,M,,*58
$GPRMC,122721.000,A,3357.9668,N,08323.7169,W,13.31,94.51,040815,,,A*78
$GPGGA,122722.000,3357.9668,N,08323.7121,W,1,06,1.34,248.6,M,-31.4,M,,*57
$GPRMC,122722.000,A,3357.9668,N,08323.7121,W,14.67,89.41,040815,,,A*7E
$GPGGA,122723.000,3357.9668,N,08323.7073,W,1,06,1.33,248.9,M,-31.4,M,,*58
$GPRMC,122723.000,A,3357.9668,N,08323.7073,W,14.68,89.61,040815,,,A*74
$GPGGA,122724.000,3357.9667,N,08323.7025,W,1,06,1.33,249.3,M,-31.4,M,,*58
$GPRMC,122724.000,A,3357.9667,N,08323.7025,W,14.05,91.40,040815,,,A*7E
$GPGGA,122725.000,3357.9665,N,08323.6980,W,1,06,1.33,249.7,M,-31.4,M,,*58
$GPRMC,122725.000,A,3357.9665,N,08323.6980,W,13.84,92.01,040815,,,A*72
$GPGGA,122726.000,3357.9662,N,08323.6936,W,1,06,1.33,250.3,M,-31.4,M,,*5D
$GPRMC,122726.000,A,3357.9662,N,08323.6936,W,13.90,92.33,040815,,,A*7F
$GPGGA,122727.000,3357.9661,N,08323.6889,W,1,06,1.33,250.8,M,-31.4,M,,*51
$GPRMC,122727.000,A,3357.9661,N,08323.6889,W,14.18,92.56,040815,,,A*7C
$GPGGA,122728.000,3357.9657,N,08323.6845,W,1,06,1.33,251.3,M,-31.4,M,,*51
$GPRMC,122728.000,A,3357.9657,N,08323.6845,W,14.15,93.63,040815,,,A*7C
$GPGGA,122729.000,3357.9653,N,08323.6799,W,1,06,1.33,251.9,M,-31.4,M,,*50
$GPRMC,122729.000,A,3357.9653,N,08323.6799,W,14.62,92.96,040815,,,A*7C
$GPGGA,122730.000,3357.9650,N,08323.6751,W,1,06,1.33,252.4,M,-31.4,M,,*51
$GPRMC,122730.000,A,3357.9650,N,08323.6751,W,14.69,92.59,040815,,,A*7B
$GPGGA,122731.000,3357.9646,N,08323.6705,W,1,06,1.33,252.8,M,-31.4,M,,*5A
$GPRMC,122731.000,A,3357.9646,N,08323.6705,W,14.27,92.78,040815,,,A*75
$GPGGA,122732.000,3357.9639,N,08323.6661,W,1,06,1.33,253.2,M,-31.4,M,,*59
$GPRMC,122732.000,A,3357.9639,N,08323.6661,W,15.01,92.48,040815,,,A*7B
$GPGGA,122733.000,3357.9631,N,08323.6618,W,1,05,1.71,253.5,M,-31.4,M,,*5C
$GPRMC,122733.000,A,3357.9631,N,08323.6618,W,15.73,91.24,040815,,,A*70
$GPGGA,122734.000,3357.9625,N,08323.6572,W,1,06,1.33,253.7,M,-31.4,M,,*56
$GPRMC,122734.000,A,3357.9625,N,08323.6572,W,15.70,93.23,040815,,,A*7B
$GPGGA,122735.000,3357.9616,N,08323.6531,W,1,06,1.33,253.8,M,-31.4,M,,*5F
$GPRMC,122735.000,A,3357.9616,N,08323.6531,W,16.28,91.80,040815,,,A*78
$GPGGA,122736.000,3357.9611,N,08323.6480,W,1,06,1.33,254.0,M,-31.4,M,,*5F
$GPRMC,122736.000,A,3357.9611,N,08323.6480,W,16.60,92.71,040815,,,A*76
$GPGGA,122737.000,3357.9606,N,08323.6429,W,1,06,1.33,254.1,M,-31.4,M,,*5A
$GPRMC,122737.000,A,3357.9606,N,08323.6429,W,15.84,96.14,040815,,,A*7C
$GPGGA,122738.000,3357.9600,N,08323.6378,W,1,06,1.33,254.3,M,-31.4,M,,*52
$GPRMC,122738.000,A,3357.9600,N,08323.6378,W,15.51,95.55,040815,,,A*78
$GPGGA,122739.000,3357.9592,N,08323.6326,W,1,06,1.33,254.3,M,-31.4,M,,*50
$GPRMC,122739.000,A,3357.9592,N,08323.6326,W,15.84,96.99,040815,,,A*71
$GPGGA,122740.000,3357.9586,N,08323.6271,W,1,06,1.33,254.5,M,-31.4,M,,*5E
$GPRMC,122740.000,A,3357.9586,N,08323.6271,W,16.73,95.72,040815,,,A*74
$GPGGA,122741.000,3357.9580,N,08323.6215,W,1,06,1.33,254.6,M,-31.4,M,,*58
$GPRMC,122741.000,A,3357.9580,N,08323.6215,W,17.29,95.71,040815,,,A*7C
$GPGGA,122742.000,3357.9575,N,08323.6154,W,1,06,1.34,254.7,M,-31.4,M,,*51
$GPRMC,122742.000,A,3357.9575,N,08323.6154,W,18.22,93.60,040815,,,A*71
$GPGGA,122743.000,3357.9571,N,08323.6094,W,1,06,1.33,254.7,M,-31.4,M,,*5E
$GPRMC,122743.000,A,3357.9571,N,08323.6094,W,16.41,92.99,040815,,,A*75
$GPGGA,122744.000,3357.9564,N,08323.6045,W,1,06,1.33,254.5,M,-31.4,M,,*53
$GPRMC,122744.000,A,3357.9564,N,08323.6045,W,13.23,97.18,040815,,,A*77
$GPGGA,122745.000,3357.9561,N,08323.6001,W,1,06,1.33,254.5,M,-31.4,M,,*57
$GPRMC,122745.000,A,3357.9561,N,08323.6001,W,12.10,94.29,040815,,,A*73
$GPGGA,122746.000,3357.9558,N,08323.5964,W,1,06,1.33,254.6,M,-31.4,M,,*54
$GPRMC,122746.000,A,3357.9558,N,08323.5964,W,9.93,94.33,040815,,,A*49
$GPGGA,122747.000,3357.9553,N,08323.5938,W,1,06,1.33,254.5,M,-31.4,M,,*54
$GPRMC,122747.000,A,3357.9553,N,08323.5938,W,7.16,92.83,040815,,,A*44
$GPGGA,122748.000,3357.9548,N,08323.5924,W,1,06,1.33,254.3,M,-31.4,M,,*5A
$GPRMC,122748.000,A,3357.9548,N,08323.5924,W,4.14,96.11,040815,,,A*42
$GPGGA,122749.000,3357.9542,N,08323.5918,W,1,06,1.33,254.2,M,-31.4,M,,*5F
$GPRMC,122749.000,A,3357.9542,N,08323.5918,W,3.09,90.30,040815,,,A*48
$GPGGA,122750.000,3357.9539,N,08323.5915,W,1,06,1.33,254.2,M,-31.4,M,,*56
$GPRMC,122750.000,A,3357.9539,N,08323.5915,W,1.76,90.30,040815,,,A*4B
$GPGGA,122751.000,3357.9538,N,08323.5912,W,1,06,1.33,254.3,M,-31.4,M,,*50
$GPRMC,122751.000,A,3357.9538,N,08323.5912,W,0.07,90.30,040815,,,A*4B
$GPGGA,122752.000,3357.9536,N,08323.5913,W,1,06,1.33,254.3,M,-31.4,M,,*5C
$GPRMC,122752.000,A,3357.9536,N,08323.5913,W,0.06,90.30,040815,,,A*46
$GPGGA,122753.000,3357.9537,N,08323.5912,W,1,06,1.33,254.3,M,-31.4,M,,*5D
$GPRMC,122753.000,A,3357.9537,N,08323.5912,W,0.07,90.30,040815,,,A*46
$GPGGA,122754.000,3357.9538,N,08323.5910,W,1,06,1.33,254.5,M,-31.4,M,,*51
$GPRMC,122754.000,A,3357.9538,N,08323.5910,W,0.05,90.30,040815,,,A*4E
$GPGGA,122755.000,3357.9538,N,08323.5908,W,1,06,1.33,254.8,M,-31.4,M,,*54
$GPRMC,122755.000,A,3357.9538,N,08323.5908,W,0.01,90.30,040815,,,A*42
$GPGGA,122756.000,3357.9538,N,08323.5908,W,1,07,1.09,255.0,M,-31.4,M,,*56
$GPRMC,122756.000,A,3357.9538,N,08323.5908,W,0.00,90.30,040815,,,A*40
$GPGGA,122757.000,3357.9538,N,08323.5908,W,1,07,1.15,255.0,M,-31.4,M,,*5A
$GPRMC,122757.000,A,3357.9538,N,08323.5908,W,0.00,90.30,040815,,,A*41
$GPGGA,122758.000,3357.9538,N,08323.5908,W,1,07,1.15,255.0,M,-31.4,M,,*55
$GPRMC,122758.000,A,3357.9538,N,08323.5908,W,0.00,90.30,040815,,,A*4E
$GPGGA,122759.000,3357.9538,N,08323.5905,W,1,07,1.09,254.9,M,-31.4,M,,*5C
$GPRMC,122759.000,A,3357.9538,N,08323.5905,W,0.13,90.30,040815,,,A*40
$GPGGA,122800.000,3357.9537,N,08323.5901,W,1,07,1.09,255.0,M,-31.4,M,,*5C
$GPRMC,122800.000,A,3357.9537,N,08323.5901,W,0.24,90.30,040815,,,A*4C
$GPGGA,122801.000,3357.9528,N,08323.5877,W,1,07,1.09,254.7,M,-31.4,M,,*55
$GPRMC,122801.000,A,3357.9528,N,08323.5877,W,10.20,109.77,040815,,,A*44
$GPGGA,122802.000,3357.9513,N,08323.5842,W,1,07,1.15,254.3,M,-31.4,M,,*51
$GPRMC,122802.000,A,3357.9513,N,08323.5842,W,13.07,108.58,040815,,,A*43
$GPGGA,122803.000,3357.9491,N,08323.5804,W,1,07,1.15,254.0,M,-31.4,M,,*5A
$GPRMC,122803.000,A,3357.9491,N,08323.5804,W,14.78,102.53,040815,,,A*45
$GPGGA,122804.000,3357.9482,N,08323.5755,W,1,07,1.15,253.6,M,-31.4,M,,*55
$GPRMC,122804.000,A,3357.9482,N,08323.5755,W,15.89,100.01,040815,,,A*41
$GPGGA,122805.000,3357.9472,N,08323.5694,W,1,07,1.09,253.2,M,-31.4,M,,*5E
$GPRMC,122805.000,A,3357.9472,N,08323.5694,W,17.43,96.97,040815,,,A*76
$GPGGA,122806.000,3357.9466,N,08323.5630,W,1,07,1.15,252.8,M,-31.4,M,,*50
$GPRMC,122806.000,A,3357.9466,N,08323.5630,W,17.50,96.97,040815,,,A*7C
$GPGGA,122807.000,3357.9462,N,08323.5566,W,1,07,1.09,252.3,M,-31.4,M,,*53
$GPRMC,122807.000,A,3357.9462,N,08323.5566,W,17.88,96.24,040815,,,A*74
$GPGGA,122808.000,3357.9457,N,08323.5502,W,1,06,1.22,252.0,M,-31.4,M,,*53
$GPRMC,122808.000,A,3357.9457,N,08323.5502,W,18.43,96.22,040815,,,A*71
$GPGGA,122809.000,3357.9453,N,08323.5434,W,1,05,1.86,251.1,M,-31.4,M,,*5D
$GPRMC,122809.000,A,3357.9453,N,08323.5434,W,18.93,97.23,040815,,,A*7D
$GPGGA,122810.000,3357.9450,N,08323.5366,W,1,07,1.09,250.7,M,-31.4,M,,*54
$GPRMC,122810.000,A,3357.9450,N,08323.5366,W,20.36,94.76,040815,,,A*71
$GPGGA,122811.000,3357.9447,N,08323.5296,W,1,06,1.22,250.3,M,-31.4,M,,*51
$GPRMC,122811.000,A,3357.9447,N,08323.5296,W,21.14,93.50,040815,,,A*7A
$GPGGA,122812.000,3357.9446,N,08323.5225,W,1,07,1.09,249.8,M,-31.4,M,,*50
$GPRMC,122812.000,A,3357.9446,N,08323.5225,W,21.73,92.14,040815,,,A*70
$GPGGA,122813.000,3357.9445,N,08323.5154,W,1,07,1.09,249.2,M,-31.4,M,,*5D
$GPRMC,122813.000,A,3357.9445,N,08323.5154,W,20.93,90.97,040815,,,A*71
$GPGGA,122814.000,3357.9442,N,08323.5088,W,1,07,1.09,248.7,M,-31.4,M,,*59
$GPRMC,122814.000,A,3357.9442,N,08323.5088,W,20.13,93.84,040815,,,A*78
$GPGGA,122815.000,3357.9438,N,08323.5021,W,1,07,1.09,248.2,M,-31.4,M,,*53
$GPRMC,122815.000,A,3357.9438,N,08323.5021,W,20.18,94.73,040815,,,A*73
$GPGGA,122816.000,3357.9434,N,08323.4955,W,1,07,1.09,247.6,M,-31.4,M,,*5C
$GPRMC,122816.000,A,3357.9434,N,08323.4955,W,19.55,94.87,040815,,,A*7F
$GPGGA,122817.000,3357.9431,N,08323.4889,W,1,07,1.09,247.1,M,-31.4,M,,*5F
$GPRMC,122817.000,A,3357.9431,N,08323.4889,W,19.60,92.96,040815,,,A*7B
$GPGGA,122818.000,3357.9428,N,08323.4824,W,1,07,1.09,246.6,M,-31.4,M,,*59
$GPRMC,122818.000,A,3357.9428,N,08323.4824,W,19.61,92.38,040815,,,A*7E
$GPGGA,122819.000,3357.9425,N,08323.4762,W,1,07,1.09,246.1,M,-31.4,M,,*5F
$GPRMC,122819.000,A,3357.9425,N,08323.4762,W,19.44,93.42,040815,,,A*74
$GPGGA,122820.000,3357.9418,N,08323.4695,W,1,07,1.09,245.7,M,-31.4,M,,*57
$GPRMC,122820.000,A,3357.9418,N,08323.4695,W,22.00,95.14,040815,,,A*74
$GPGGA,122821.000,3357.9414,N,08323.4620,W,1,07,1.09,245.1,M,-31.4,M,,*52
$GPRMC,122821.000,A,3357.9414,N,08323.4620,W,24.64,93.12,040815,,,A*73
$GPGGA,122822.000,3357.9410,N,08323.4544,W,1,07,1.09,244.5,M,-31.4,M,,*51
$GPRMC,122822.000,A,3357.9410,N,08323.4544,W,24.03,93.72,040815,,,A*72
$GPGGA,122823.000,3357.9408,N,08323.4477,W,1,07,1.09,243.9,M,-31.4,M,,*53
$GPRMC,122823.000,A,3357.9408,N,08323.4477,W,22.73,90.84,040815,,,A*70
$GPGGA,122824.000,3357.9407,N,08323.4406,W,1,07,1.09,243.2,M,-31.4,M,,*56
$GPRMC,122824.000,A,3357.9407,N,08323.4406,W,21.43,89.94,040815,,,A*77
$GPGGA,122825.000,3357.9407,N,08323.4343,W,1,07,1.09,242.5,M,-31.4,M,,*57
$GPRMC,122825.000,A,3357.9407,N,08323.4343,W,19.54,88.13,040815,,,A*73
$GPGGA,122826.000,3357.9409,N,08323.4283,W,1,07,1.09,241.8,M,-31.4,M,,*59
$GPRMC,122826.000,A,3357.9409,N,08323.4283,W,18.42,86.48,040815,,,A*75
$GPGGA,122827.000,3357.9410,N,08323.4227,W,1,07,1.09,240.9,M,-31.4,M,,*5E
$GPRMC,122827.000,A,3357.9410,N,08323.4227,W,17.56,89.85,040815,,,A*76
$GPGGA,122828.000,3357.9408,N,08323.4171,W,1,07,1.09,240.2,M,-31.4,M,,*53
$GPRMC,122828.000,A,3357.9408,N,08323.4171,W,16.93,92.31,040815,,,A*7D
$GPGGA,122829.000,3357.9406,N,08323.4119,W,1,07,1.09,239.6,M,-31.4,M,,*58
$GPRMC,122829.000,A,3357.9406,N,08323.4119,W,16.08,91.75,040815,,,A*7D
$GPGGA,122830.000,3357.9401,N,08323.4070,W,1,07,1.09,238.9,M,-31.4,M,,*57
$GPRMC,122830.000,A,3357.9401,N,08323.4070,W,15.84,92.31,040815,,,A*78
$GPGGA,122831.000,3357.9401,N,08323.4017,W,1,07,1.09,238.2,M,-31.4,M,,*5C
$GPRMC,122831.000,A,3357.9401,N,08323.4017,W,15.80,90.12,040815,,,A*7F
$GPGGA,122832.000,3357.9401,N,08323.3962,W,1,07,1.09,237.3,M,-31.4,M,,*5D
$GPRMC,122832.000,A,3357.9401,N,08323.3962,W,15.11,91.27,040815,,,A*7F
$GPGGA,122833.000,3357.9402,N,08323.3907,W,1,07,1.09,236.4,M,-31.4,M,,*5A
$GPRMC,122833.000,A,3357.9402,N,08323.3907,W,15.27,90.93,040815,,,A*75
$GPGGA,122834.000,3357.9398,N,08323.3852,W,1,07,1.09,235.7,M,-31.4,M,,*58
$GPRMC,122834.000,A,3357.9398,N,08323.3852,W,15.65,92.76,040815,,,A*78
$GPGGA,122835.000,3357.9386,N,08323.3803,W,1,07,1.09,235.0,M,-31.4,M,,*55
$GPRMC,122835.000,A,3357.9386,N,08323.3803,W,15.68,95.80,040815,,,A*71
$GPGGA,122836.000,3357.9374,N,08323.3753,W,1,07,1.09,234.3,M,-31.4,M,,*53
$GPRMC,122836.000,A,3357.9374,N,08323.3753,W,15.76,97.06,040815,,,A*76
$GPGGA,122837.000,3357.9368,N,08323.3699,W,1,07,1.09,233.6,M,-31.4,M,,*5A
$GPRMC,122837.000,A,3357.9368,N,08323.3699,W,15.29,96.14,040815,,,A*75
$GPGGA,122838.000,3357.9360,N,08323.3653,W,1,07,1.09,232.8,M,-31.4,M,,*54
$GPRMC,122838.000,A,3357.9360,N,08323.3653,W,15.24,93.40,040815,,,A*7D
$GPGGA,122839.000,3357.9360,N,08323.3596,W,1,07,1.09,231.8,M,-31.4,M,,*5C
$GPRMC,122839.000,A,3357.9360,N,08323.3596,W,14.80,92.12,040815,,,A*7F
$GPGGA,122840.000,3357.9359,N,08323.3544,W,1,07,1.09,231.1,M,-31.4,M,,*5E
$GPRMC,122840.000,A,3357.9359,N,08323.3544,W,14.50,90.88,040815,,,A*78
$GPGGA,122841.000,3357.9356,N,08323.3493,W,1,07,1.09,230.5,M,-31.4,M,,*5E
$GPRMC,122841.000,A,3357.9356,N,08323.3493,W,14.49,92.65,040815,,,A*74
$GPGGA,122842.000,3357.9355,N,08323.3447,W,1,07,1.09,229.9,M,-31.4,M,,*53
$GPRMC,122842.000,A,3357.9355,N,08323.3447,W,14.43,90.63,040815,,,A*73
$GPGGA,122843.000,3357.9351,N,08323.3402,W,1,07,1.09,229.5,M,-31.4,M,,*5B
$GPRMC,122843.000,A,3357.9351,N,08323.3402,W,13.99,95.46,040815,,,A*75
$GPGGA,122844.000,3357.9346,N,08323.3356,W,1,07,1.09,229.2,M,-31.4,M,,*5B
$GPRMC,122844.000,A,3357.9346,N,08323.3356,W,14.84,95.41,040815,,,A*7E
$GPGGA,122845.000,3357.9343,N,08323.3306,W,1,07,1.09,228.8,M,-31.4,M,,*51
$GPRMC,122845.000,A,3357.9343,N,08323.3306,W,15.56,93.27,040815,,,A*77
$GPGGA,122846.000,3357.9340,N,08323.3258,W,1,06,1.32,228.3,M,-31.4,M,,*59
$GPRMC,122846.000,A,3357.9340,N,08323.3258,W,14.87,92.88,040815,,,A*74
$GPGGA,122847.000,3357.9334,N,08323.3213,W,1,06,1.32,228.0,M,-31.4,M,,*57
$GPRMC,122847.000,A,3357.9334,N,08323.3213,W,14.40,95.46,040815,,,A*77
$GPGGA,122848.000,3357.9325,N,08323.3174,W,1,06,1.32,227.8,M,-31.4,M,,*5D
$GPRMC,122848.000,A,3357.9325,N,08323.3174,W,13.57,97.59,040815,,,A*77
$GPGGA,122849.000,3357.9317,N,08323.3133,W,1,06,1.32,227.5,M,-31.4,M,,*53
$GPRMC,122849.000,A,3357.9317,N,08323.3133,W,13.14,97.63,040815,,,A*7A
$GPGGA,122850.000,3357.9310,N,08323.3095,W,1,06,1.32,227.2,M,-31.4,M,,*56
$GPRMC,122850.000,A,3357.9310,N,08323.3095,W,13.13,97.76,040815,,,A*7B
$GPGGA,122851.000,3357.9301,N,08323.3059,W,2,06,1.32,226.8,M,-31.4,M,0000,0000*5F
$GPRMC,122851.000,A,3357.9301,N,08323.3059,W,12.88,99.08,040815,,,D*7B
$GPGGA,122852.000,3357.9302,N,08323.3010,W,2,07,1.09,226.8,M,-31.4,M,0000,0000*5B
$GPRMC,122852.000,A,3357.9302,N,08323.3010,W,13.59,95.20,040815,,,D*7D
$GPGGA,122853.000,3357.9301,N,08323.2963,W,2,07,1.09,226.6,M,-31.4,M,0000,0000*5B
$GPRMC,122853.000,A,3357.9301,N,08323.2963,W,13.34,94.78,040815,,,D*74
$GPGGA,122854.000,3357.9299,N,08323.2920,W,2,07,1.09,226.3,M,-31.4,M,0000,0000*5E
$GPRMC,122854.000,A,3357.9299,N,08323.2920,W,12.81,93.77,040815,,,D*73
$GPGGA,122855.000,3357.9297,N,08323.2878,W,2,07,1.09,226.0,M,-31.4,M,0000,0000*5E
$GPRMC,122855.000,A,3357.9297,N,08323.2878,W,12.86,91.63,040815,,,D*70
$GPGGA,122856.000,3357.9294,N,08323.2841,W,2,07,1.09,225.7,M,-31.4,M,0000,0000*50
$GPRMC,122856.000,A,3357.9294,N,08323.2841,W,13.25,91.22,040815,,,D*77
$GPGGA,122857.000,3357.9290,N,08323.2800,W,2,07,1.09,225.3,M,-31.4,M,0000,0000*54
$GPRMC,122857.000,A,3357.9290,N,08323.2800,W,13.47,95.02,040815,,,D*75
$GPGGA,122858.000,3357.9286,N,08323.2759,W,2,07,1.09,225.0,M,-31.4,M,0000,0000*5C
$GPRMC,122858.000,A,3357.9286,N,08323.2759,W,13.13,94.60,040815,,,D*7A
$GPGGA,122859.000,3357.9282,N,08323.2718,W,2,07,1.09,224.7,M,-31.4,M,0000,0000*5A
$GPRMC,122859.000,A,3357.9282,N,08323.2718,W,12.86,94.13,040815,,,D*73
$GPGGA,122900.000,3357.9277,N,08323.2679,W,2,06,1.32,224.3,M,-31.4,M,0000,0000*56
$GPRMC,122900.000,A,3357.9277,N,08323.2679,W,12.52,97.12,040815,,,D*79
$GPGGA,122901.000,3357.9273,N,08323.2639,W,2,07,1.09,224.0,M,-31.4,M,0000,0000*5D
$GPRMC,122901.000,A,3357.9273,N,08323.2639,W,12.53,94.35,040815,,,D*7F
$GPGGA,122902.000,3357.9269,N,08323.2601,W,2,07,1.09,223.7,M,-31.4,M,0000,0000*5E
$GPRMC,122902.000,A,3357.9269,N,08323.2601,W,12.53,95.57,040815,,,D*79
$GPGGA,122903.000,3357.9265,N,08323.2561,W,2,07,1.09,223.6,M,-31.4,M,0000,0000*57
$GPRMC,122903.000,A,3357.9265,N,08323.2561,W,12.86,94.49,040815,,,D*77
$GPGGA,122904.000,3357.9262,N,08323.2521,W,2,07,1.09,223.4,M,-31.4,M,0000,0000*51
$GPRMC,122904.000,A,3357.9262,N,08323.2521,W,13.36,93.64,040815,,,D*71
$GPGGA,122905.000,3357.9255,N,08323.2493,W,2,07,1.09,223.4,M,-31.4,M,0000,0000*5C
$GPRMC,122905.000,A,3357.9255,N,08323.2493,W,12.81,96.94,040815,,,D*7B
$GPGGA,122906.000,3357.9253,N,08323.2452,W,2,07,1.09,223.4,M,-31.4,M,0000,0000*54
$GPRMC,122906.000,A,3357.9253,N,08323.2452,W,12.74,95.57,040815,,,D*75
$GPGGA,122907.000,3357.9250,N,08323.2414,W,2,07,1.09,223.3,M,-31.4,M,0000,0000*53
$GPRMC,122907.000,A,3357.9250,N,08323.2414,W,12.34,91.91,040815,,,D*7F
$GPGGA,122908.000,3357.9247,N,08323.2376,W,2,07,1.09,223.1,M,-31.4,M,0000,0000*5B
$GPRMC,122908.000,A,3357.9247,N,08323.2376,W,11.97,91.37,040815,,,D*73
$GPGGA,122909.000,3357.9250,N,08323.2334,W,2,07,1.09,223.1,M,-31.4,M,0000,0000*5A
$GPRMC,122909.000,A,3357.9250,N,08323.2334,W,11.99,87.53,040815,,,D*79
$GPGGA,122910.000,3357.9248,N,08323.2294,W,2,07,1.09,223.0,M,-31.4,M,0000,0000*51
$GPRMC,122910.000,A,3357.9248,N,08323.2294,W,12.40,90.27,040815,,,D*71
$GPGGA,122911.000,3357.9247,N,08323.2257,W,2,07,1.09,222.7,M,-31.4,M,0000,0000*56
$GPRMC,122911.000,A,3357.9247,N,08323.2257,W,11.47,92.67,040815,,,D*72
$GPGGA,122912.000,3357.9244,N,08323.2222,W,2,07,1.09,222.5,M,-31.4,M,0000,0000*56
$GPRMC,122912.000,A,3357.9244,N,08323.2222,W,10.74,92.64,040815,,,D*72
$GPGGA,122913.000,3357.9241,N,08323.2188,W,2,07,1.09,222.3,M,-31.4,M,0000,0000*57
$GPRMC,122913.000,A,3357.9241,N,08323.2188,W,10.79,92.87,040815,,,D*75
$GPGGA,122914.000,3357.9238,N,08323.2152,W,2,07,1.09,222.1,M,-31.4,M,0000,0000*5B
$GPRMC,122914.000,A,3357.9238,N,08323.2152,W,11.26,95.54,040815,,,D*79
$GPGGA,122915.000,3357.9239,N,08323.2111,W,2,07,1.09,221.8,M,-31.4,M,0000,0000*56
$GPRMC,122915.000,A,3357.9239,N,08323.2111,W,12.07,90.49,040815,,,D*77
$GPGGA,122916.000,3357.9237,N,08323.2069,W,2,07,1.09,221.3,M,-31.4,M,0000,0000*5E
$GPRMC,122916.000,A,3357.9237,N,08323.2069,W,12.26,87.71,040815,,,D*7A
$GPGGA,122917.000,3357.9237,N,08323.2027,W,2,07,1.09,220.9,M,-31.4,M,0000,0000*5E
$GPRMC,122917.000,A,3357.9237,N,08323.2027,W,11.50,92.80,040815,,,D*79
$GPGGA,122918.000,3357.9231,N,08323.1988,W,2,07,1.15,220.7,M,-31.4,M,0000,0000*5B
$GPRMC,122918.000,A,3357.9231,N,08323.1988,W,11.15,98.75,040815,,,D*7E
$GPGGA,122919.000,3357.9223,N,08323.1950,W,2,07,1.15,220.6,M,-31.4,M,0000,0000*5D
$GPRMC,122919.000,A,3357.9223,N,08323.1950,W,11.64,97.45,040815,,,D*73
$GPGGA,122920.000,3357.9217,N,08323.1910,W,2,07,1.15,220.5,M,-31.4,M,0000,0000*57
$GPRMC,122920.000,A,3357.9217,N,08323.1910,W,11.67,97.74,040815,,,D*7B
$GPGGA,122921.000,3357.9211,N,08323.1870,W,2,07,1.09,220.5,M,-31.4,M,0000,0000*5A
$GPRMC,122921.000,A,3357.9211,N,08323.1870,W,12.00,96.11,040815,,,D*7B
$GPGGA,122922.000,3357.9207,N,08323.1829,W,2,07,1.09,220.3,M,-31.4,M,0000,0000*54
$GPRMC,122922.000,A,3357.9207,N,08323.1829,W,11.97,94.36,040815,,,D*79
$GPGGA,122923.000,3357.9204,N,08323.1788,W,2,07,1.09,220.2,M,-31.4,M,0000,0000*53
$GPRMC,122923.000,A,3357.9204,N,08323.1788,W,12.36,93.04,040815,,,D*71
$GPGGA,122924.000,3357.9200,N,08323.1747,W,2,07,1.09,220.1,M,-31.4,M,0000,0000*50
$GPRMC,122924.000,A,3357.9200,N,08323.1747,W,12.30,92.79,040815,,,D*7C
$GPGGA,122925.000,3357.9201,N,08323.1702,W,2,07,1.09,220.3,M,-31.4,M,0000,0000*53
$GPRMC,122925.000,A,3357.9201,N,08323.1702,W,12.59,92.11,040815,,,D*7C
$GPGGA,122926.000,3357.9198,N,08323.1663,W,2,07,1.09,220.1,M,-31.4,M,0000,0000*57
$GPRMC,122926.000,A,3357.9198,N,08323.1663,W,11.81,93.10,040815,,,D*7C
$GPGGA,122927.000,3357.9194,N,08323.1623,W,2,07,1.09,220.2,M,-31.4,M,0000,0000*5D
$GPRMC,122927.000,A,3357.9194,N,08323.1623,W,11.58,95.49,040815,,,D*7B
$GPGGA,122928.000,3357.9188,N,08323.1585,W,2,07,1.09,220.3,M,-31.4,M,0000,0000*51
$GPRMC,122928.000,A,3357.9188,N,08323.1585,W,11.28,97.14,040815,,,D*7B
$GPGGA,122929.000,3357.9182,N,08323.1550,W,2,06,1.33,220.3,M,-31.4,M,0000,0000*5A
$GPRMC,122929.000,A,3357.9182,N,08323.1550,W,11.23,96.49,040815,,,D*7A
$GPGGA,122930.000,3357.9178,N,08323.1514,W,2,07,1.09,220.1,M,-31.4,M,0000,0000*5D
$GPRMC,122930.000,A,3357.9178,N,08323.1514,W,12.06,93.28,040815,,,D*71
$GPGGA,122931.000,3357.9180,N,08323.1472,W,2,07,1.09,220.0,M,-31.4,M,0000,0000*5B
$GPRMC,122931.000,A,3357.9180,N,08323.1472,W,12.67,88.55,040815,,,D*71
$GPGGA,122932.000,3357.9178,N,08323.1435,W,2,07,1.09,220.1,M,-31.4,M,0000,0000*5D
$GPRMC,122932.000,A,3357.9178,N,08323.1435,W,11.82,88.73,040815,,,D*7A
$GPGGA,122933.000,3357.9178,N,08323.1400,W,2,07,1.09,220.0,M,-31.4,M,0000,0000*5B
$GPRMC,122933.000,A,3357.9178,N,08323.1400,W,10.87,89.48,040815,,,D*70
$GPGGA,122934.000,3357.9177,N,08323.1367,W,2,07,1.09,219.9,M,-31.4,M,0000,0000*56
$GPRMC,122934.000,A,3357.9177,N,08323.1367,W,10.49,88.82,040815,,,D*7B
$GPGGA,122935.000,3357.9173,N,08323.1339,W,2,07,1.09,219.9,M,-31.4,M,0000,0000*58
$GPRMC,122935.000,A,3357.9173,N,08323.1339,W,8.94,91.74,040815,,,D*4D
$GPGGA,122936.000,3357.9166,N,08323.1320,W,2,07,1.09,220.1,M,-31.4,M,0000,0000*55
$GPRMC,122936.000,A,3357.9166,N,08323.1320,W,7.25,89.19,040815,,,D*45
$GPGGA,122937.000,3357.9160,N,08323.1307,W,2,07,1.09,220.0,M,-31.4,M,0000,0000*56
$GPRMC,122937.000,A,3357.9160,N,08323.1307,W,5.46,83.87,040815,,,D*4D
$GPGGA,122938.000,3357.9163,N,08323.1288,W,2,07,1.09,220.1,M,-31.4,M,0000,0000*5D
$GPRMC,122938.000,A,3357.9163,N,08323.1288,W,2.89,83.87,040815,,,D*43
$GPGGA,122939.000,3357.9163,N,08323.1283,W,2,07,1.09,220.3,M,-31.4,M,0000,0000*55
$GPRMC,122939.000,A,3357.9163,N,08323.1283,W,0.16,83.87,040815,,,D*4D
$GPGGA,122940.000,3357.9163,N,08323.1277,W,2,07,1.09,220.5,M,-31.4,M,0000,0000*56
$GPRMC,122940.000,A,3357.9163,N,08323.1277,W,0.14,83.87,040815,,,D*4A
$GPGGA,122941.000,3357.9159,N,08323.1276,W,2,07,1.09,220.8,M,-31.4,M,0000,0000*52
$GPRMC,122941.000,A,3357.9159,N,08323.1276,W,0.15,83.87,040815,,,D*42
$GPGGA,122942.000,3357.9156,N,08323.1272,W,2,07,1.09,221.0,M,-31.4,M,0000,0000*53
$GPRMC,122942.000,A,3357.9156,N,08323.1272,W,0.15,83.87,040815,,,D*4A
$GPGGA,122943.000,3357.9156,N,08323.1267,W,2,07,1.09,220.7,M,-31.4,M,0000,0000*50
$GPRMC,122943.000,A,3357.9156,N,08323.1267,W,0.14,83.87,040815,,,D*4E
$GPGGA,122944.000,3357.9157,N,08323.1263,W,2,07,1.09,220.4,M,-31.4,M,0000,0000*51
$GPRMC,122944.000,A,3357.9157,N,08323.1263,W,0.10,83.87,040815,,,D*48
$GPGGA,122945.000,3357.9158,N,08323.1260,W,2,07,1.09,220.2,M,-31.4,M,0000,0000*5A
$GPRMC,122945.000,A,3357.9158,N,08323.1260,W,0.07,83.87,040815,,,D*43
$GPGGA,122946.000,3357.9159,N,08323.1258,W,2,07,1.09,219.9,M,-31.4,M,0000,0000*52
$GPRMC,122946.000,A,3357.9159,N,08323.1258,W,0.07,83.87,040815,,,D*4A
$GPGGA,122947.000,3357.9159,N,08323.1256,W,2,07,1.09,219.6,M,-31.4,M,0000,0000*52
$GPRMC,122947.000,A,3357.9159,N,08323.1256,W,0.08,83.87,040815,,,D*4A
$GPGGA,122948.000,3357.9160,N,08323.1254,W,2,06,1.33,219.3,M,-31.4,M,0000,0000*58
$GPRMC,122948.000,A,3357.9160,N,08323.1254,W,0.10,83.87,040815,,,D*44
$GPGGA,122949.000,3357.9160,N,08323.1250,W,2,07,1.09,219.0,M,-31.4,M,0000,0000*56
$GPRMC,122949.000,A,3357.9160,N,08323.1250,W,0.96,83.87,040815,,,D*4F
$GPGGA,122950.000,3357.9160,N,08323.1247,W,2,07,1.09,218.7,M,-31.4,M,0000,0000*5E
$GPRMC,122950.000,A,3357.9160,N,08323.1247,W,0.95,83.87,040815,,,D*42
$GPGGA,122951.000,3357.9160,N,08323.1244,W,2,07,1.09,218.5,M,-31.4,M,0000,0000*5E
$GPRMC,122951.000,A,3357.9160,N,08323.1244,W,1.98,83.87,040815,,,D*4C
$GPGGA,122952.000,3357.9152,N,08323.1247,W,2,07,1.09,218.6,M,-31.4,M,0000,0000*5C
$GPRMC,122952.000,A,3357.9152,N,08323.1247,W,1.95,120.26,040815,,,D*73
$GPGGA,122953.000,3357.9136,N,08323.1239,W,2,07,1.09,218.5,M,-31.4,M,0000,0000*55
$GPRMC,122953.000,A,3357.9136,N,08323.1239,W,9.49,131.90,040815,,,D*7D
$GPGGA,122954.000,3357.9110,N,08323.1221,W,2,07,1.09,218.4,M,-31.4,M,0000,0000*5E
$GPRMC,122954.000,A,3357.9110,N,08323.1221,W,11.65,142.03,040815,,,D*4E
$GPGGA,122955.000,3357.9079,N,08323.1204,W,2,07,1.09,218.0,M,-31.4,M,0000,0000*52
$GPRMC,122955.000,A,3357.9079,N,08323.1204,W,12.40,150.01,040815,,,D*43
$GPGGA,122956.000,3357.9038,N,08323.1195,W,2,06,1.33,217.7,M,-31.4,M,0000,0000*5F
$GPRMC,122956.000,A,3357.9038,N,08323.1195,W,14.19,161.98,040815,,,D*46
$GPGGA,122957.000,3357.8994,N,08323.1180,W,2,07,1.09,217.3,M,-31.4,M,0000,0000*58
$GPRMC,122957.000,A,3357.8994,N,08323.1180,W,15.90,162.42,040815,,,D*49
$GPGGA,122958.000,3357.8947,N,08323.1169,W,2,07,1.09,216.9,M,-31.4,M,0000,0000*55
$GPRMC,122958.000,A,3357.8947,N,08323.1169,W,16.94,165.68,040815,,,D*47
$GPGGA,122959.000,3357.8898,N,08323.1153,W,2,07,1.09,216.5,M,-31.4,M,0000,0000*52
$GPRMC,122959.000,A,3357.8898,N,08323.1153,W,17.40,164.20,040815,,,D*49
$GPGGA,123000.000,3357.8849,N,08323.1136,W,2,07,1.09,216.2,M,-31.4,M,0000,0000*5E
$GPRMC,123000.000,A,3357.8849,N,08323.1136,W,17.78,164.45,040815,,,D*4A
$GPGGA,123001.000,3357.8796,N,08323.1117,W,2,06,1.33,215.7,M,-31.4,M,0000,0000*5F
$GPRMC,123001.000,A,3357.8796,N,08323.1117,W,18.86,164.95,040815,,,D*46
$GPGGA,123002.000,3357.8742,N,08323.1099,W,2,07,1.09,215.4,M,-31.4,M,0000,0000*59
$GPRMC,123002.000,A,3357.8742,N,08323.1099,W,19.96,164.72,040815,,,D*42
$GPGGA,123003.000,3357.8686,N,08323.1081,W,2,06,1.33,215.0,M,-31.4,M,0000,0000*54
$GPRMC,123003.000,A,3357.8686,N,08323.1081,W,20.35,164.43,040815,,,D*42
$GPGGA,123004.000,3357.8630,N,08323.1064,W,2,07,1.09,214.6,M,-31.4,M,0000,0000*5A
$GPRMC,123004.000,A,3357.8630,N,08323.1064,W,20.71,163.73,040815,,,D*47
$GPGGA,123005.000,3357.8573,N,08323.1046,W,2,07,1.09,214.2,M,-31.4,M,0000,0000*5B
$GPRMC,123005.000,A,3357.8573,N,08323.1046,W,20.64,163.98,040815,,,D*43
$GPGGA,123006.000,3357.8516,N,08323.1026,W,2,07,1.09,213.7,M,-31.4,M,0000,0000*5F
$GPRMC,123006.000,A,3357.8516,N,08323.1026,W,20.70,164.17,040815,,,D*40
$GPGGA,123007.000,3357.8450,N,08323.1012,W,2,06,1.33,213.6,M,-31.4,M,0000,0000*53
$GPRMC,123007.000,A,3357.8450,N,08323.1012,W,20.99,166.32,040815,,,D*47
$GPGGA,123008.000,3357.8384,N,08323.0991,W,2,06,1.33,213.4,M,-31.4,M,0000,0000*53
$GPRMC,123008.000,A,3357.8384,N,08323.0991,W,22.06,165.63,040815,,,D*46
$GPGGA,123009.000,3357.8322,N,08323.0970,W,2,07,1.09,213.1,M,-31.4,M,0000,0000*5C
$GPRMC,123009.000,A,3357.8322,N,08323.0970,W,22.74,164.89,040815,,,D*44
$GPGGA,123010.000,3357.8259,N,08323.0951,W,2,06,1.33,212.8,M,-31.4,M,0000,0000*5A
$GPRMC,123010.000,A,3357.8259,N,08323.0951,W,22.79,164.92,040815,,,D*45
$GPGGA,123011.000,3357.8196,N,08323.0932,W,2,06,1.33,212.6,M,-31.4,M,0000,0000*50
$GPRMC,123011.000,A,3357.8196,N,08323.0932,W,22.80,165.70,040815,,,D*4A
$GPGGA,123012.000,3357.8133,N,08323.0911,W,2,06,1.33,212.2,M,-31.4,M,0000,0000*59
$GPRMC,123012.000,A,3357.8133,N,08323.0911,W,22.98,164.17,040815,,,D*4E
$GPGGA,123013.000,3357.8069,N,08323.0889,W,2,06,1.33,211.9,M,-31.4,M,0000,0000*5E
$GPRMC,123013.000,A,3357.8069,N,08323.0889,W,23.37,162.84,040815,,,D*49
$GPGGA,123014.000,3357.8007,N,08323.0869,W,2,06,1.33,211.6,M,-31.4,M,0000,0000*50
$GPRMC,123014.000,A,3357.8007,N,08323.0869,W,23.29,165.07,040815,,,D*4B
$GPGGA,123015.000,3357.7944,N,08323.0849,W,2,06,1.33,211.2,M,-31.4,M,0000,0000*56
$GPRMC,123015.000,A,3357.7944,N,08323.0849,W,23.48,166.34,040815,,,D*4D
$GPGGA,123016.000,3357.7880,N,08323.0826,W,2,07,1.09,210.9,M,-31.4,M,0000,0000*57
$GPRMC,123016.000,A,3357.7880,N,08323.0826,W,23.46,166.00,040815,,,D*47
$GPGGA,123017.000,3357.7817,N,08323.0803,W,2,06,1.33,210.6,M,-31.4,M,0000,0000*58
$GPRMC,123017.000,A,3357.7817,N,08323.0803,W,22.83,166.77,040815,,,D*47
$GPGGA,123018.000,3357.7751,N,08323.0786,W,2,06,1.33,210.2,M,-31.4,M,0000,0000*5C
$GPRMC,123018.000,A,3357.7751,N,08323.0786,W,22.81,168.74,040815,,,D*48
$GPGGA,123019.000,3357.7693,N,08323.0768,W,2,06,1.33,209.8,M,-31.4,M,0000,0000*50
$GPRMC,123019.000,A,3357.7693,N,08323.0768,W,21.44,167.01,040815,,,D*41
$GPGGA,123020.000,3357.7636,N,08323.0746,W,2,06,1.33,209.5,M,-31.4,M,0000,0000*54
$GPRMC,123020.000,A,3357.7636,N,08323.0746,W,20.75,165.04,040815,,,D*4C
$GPGGA,123021.000,3357.7578,N,08323.0722,W,2,07,1.09,209.1,M,-31.4,M,0000,0000*52
$GPRMC,123021.000,A,3357.7578,N,08323.0722,W,21.94,164.99,040815,,,D*4D
$GPGGA,123022.000,3357.7514,N,08323.0707,W,2,07,1.09,208.8,M,-31.4,M,0000,0000*54
$GPRMC,123022.000,A,3357.7514,N,08323.0707,W,22.14,167.28,040815,,,D*41
$GPGGA,123023.000,3357.7444,N,08323.0682,W,2,06,1.33,208.8,M,-31.4,M,0000,0000*55
$GPRMC,123023.000,A,3357.7444,N,08323.0682,W,22.62,167.05,040815,,,D*46
$GPGGA,123024.000,3357.7380,N,08323.0663,W,2,06,1.33,208.4,M,-31.4,M,0000,0000*5E
$GPRMC,123024.000,A,3357.7380,N,08323.0663,W,21.97,168.66,040815,,,D*42
$GPGGA,123025.000,3357.7317,N,08323.0652,W,2,07,1.09,207.9,M,-31.4,M,0000,0000*59
$GPRMC,123025.000,A,3357.7317,N,08323.0652,W,21.95,169.67,040815,,,D*4D
$GPGGA,123026.000,3357.7254,N,08323.0637,W,2,06,1.33,207.7,M,-31.4,M,0000,0000*59
$GPRMC,123026.000,A,3357.7254,N,08323.0637,W,21.63,171.63,040815,,,D*4F
$GPGGA,123027.000,3357.7194,N,08323.0637,W,2,06,1.33,208.1,M,-31.4,M,0000,0000*5E
$GPRMC,123027.000,A,3357.7194,N,08323.0637,W,21.66,173.59,040815,,,D*4F
$GPGGA,123028.000,3357.7130,N,08323.0621,W,2,06,1.33,208.1,M,-31.4,M,0000,0000*58
$GPRMC,123028.000,A,3357.7130,N,08323.0621,W,21.73,172.27,040815,,,D*45
$GPGGA,123029.000,3357.7067,N,08323.0609,W,2,06,1.33,207.9,M,-31.4,M,0000,0000*57
$GPRMC,123029.000,A,3357.7067,N,08323.0609,W,21.52,171.70,040815,,,D*4F
$GPGGA,123030.000,3357.7005,N,08323.0599,W,2,06,1.33,207.7,M,-31.4,M,0000,0000*5F
$GPRMC,123030.000,A,3357.7005,N,08323.0599,W,21.22,171.24,040815,,,D*4F
$GPGGA,123031.000,3357.6947,N,08323.0583,W,2,07,1.09,207.7,M,-31.4,M,0000,0000*53
$GPRMC,123031.000,A,3357.6947,N,08323.0583,W,20.67,170.44,040815,,,D*4C
$GPGGA,123032.000,3357.6890,N,08323.0570,W,2,07,1.09,208.0,M,-31.4,M,0000,0000*5F
$GPRMC,123032.000,A,3357.6890,N,08323.0570,W,19.94,170.89,040815,,,D*4F
$GPGGA,123033.000,3357.6836,N,08323.0559,W,2,07,1.09,208.5,M,-31.4,M,0000,0000*5C
$GPRMC,123033.000,A,3357.6836,N,08323.0559,W,19.63,171.72,040815,,,D*44
$GPGGA,123034.000,3357.6785,N,08323.0548,W,2,07,1.09,208.8,M,-31.4,M,0000,0000*51
$GPRMC,123034.000,A,3357.6785,N,08323.0548,W,18.60,172.46,040815,,,D*42
$GPGGA,123035.000,3357.6736,N,08323.0537,W,2,07,1.09,209.2,M,-31.4,M,0000,0000*5B
$GPRMC,123035.000,A,3357.6736,N,08323.0537,W,17.70,172.51,040815,,,D*4B
$GPGGA,123036.000,3357.6690,N,08323.0527,W,2,07,1.09,209.5,M,-31.4,M,0000,0000*53
$GPRMC,123036.000,A,3357.6690,N,08323.0527,W,16.06,173.45,040815,,,D*40
$GPGGA,123037.000,3357.6648,N,08323.0519,W,2,07,1.16,209.6,M,-31.4,M,0000,0000*57
$GPRMC,123037.000,A,3357.6648,N,08323.0519,W,14.32,174.24,040815,,,D*4C
$GPGGA,123038.000,3357.6613,N,08323.0508,W,2,07,1.16,209.9,M,-31.4,M,0000,0000*59
$GPRMC,123038.000,A,3357.6613,N,08323.0508,W,11.60,177.28,040815,,,D*40
$GPGGA,123039.000,3357.6586,N,08323.0502,W,2,07,1.09,210.1,M,-31.4,M,0000,0000*53
$GPRMC,123039.000,A,3357.6586,N,08323.0502,W,8.72,177.59,040815,,,D*79
$GPGGA,123040.000,3357.6568,N,08323.0500,W,2,07,1.16,210.5,M,-31.4,M,0000,0000*55
$GPRMC,123040.000,A,3357.6568,N,08323.0500,W,4.82,174.19,040815,,,D*71
$GPGGA,123041.000,3357.6559,N,08323.0500,W,2,07,1.09,211.1,M,-31.4,M,0000,0000*5D
$GPRMC,123041.000,A,3357.6559,N,08323.0500,W,3.21,179.63,040815,,,D*7C
$GPGGA,123042.000,3357.6555,N,08323.0498,W,2,07,1.09,211.6,M,-31.4,M,0000,0000*55
$GPRMC,123042.000,A,3357.6555,N,08323.0498,W,0.18,179.63,040815,,,D*7A
$GPGGA,123043.000,3357.6553,N,08323.0503,W,2,07,1.09,212.3,M,-31.4,M,0000,0000*57
$GPRMC,123043.000,A,3357.6553,N,08323.0503,W,0.01,179.63,040815,,,D*76
$GPGGA,123044.000,3357.6554,N,08323.0510,W,2,07,1.16,213.0,M,-31.4,M,0000,0000*59
$GPRMC,123044.000,A,3357.6554,N,08323.0510,W,0.03,179.63,040815,,,D*76
$GPGGA,123045.000,3357.6550,N,08323.0514,W,2,07,1.09,215.0,M,-31.4,M,0000,0000*50
$GPRMC,123045.000,A,3357.6550,N,08323.0514,W,0.06,179.63,040815,,,D*72
$GPGGA,123046.000,3357.6549,N,08323.0513,W,2,07,1.09,214.9,M,-31.4,M,0000,0000*54
$GPRMC,123046.000,A,3357.6549,N,08323.0513,W,0.09,179.63,040815,,,D*71
$GPGGA,123047.000,3357.6546,N,08323.0513,W,2,07,1.09,214.8,M,-31.4,M,0000,0000*5B
$GPRMC,123047.000,A,3357.6546,N,08323.0513,W,0.05,179.63,040815,,,D*73
$GPGGA,123048.000,3357.6545,N,08323.0513,W,2,07,1.09,214.8,M,-31.4,M,0000,0000*57
$GPRMC,123048.000,A,3357.6545,N,08323.0513,W,0.01,179.63,040815,,,D*7B
$GPGGA,123049.000,3357.6545,N,08323.0513,W,2,07,1.09,214.8,M,-31.4,M,0000,0000*56
$GPRMC,123049.000,A,3357.6545,N,08323.0513,W,0.02,179.63,040815,,,D*79
$GPGGA,123050.000,3357.6545,N,08323.0513,W,2,07,1.09,214.9,M,-31.4,M,0000,0000*5F
$GPRMC,123050.000,A,3357.6545,N,08323.0513,W,0.01,179.63,040815,,,D*72
$GPGGA,123051.000,3357.6545,N,08323.0512,W,2,07,1.09,214.9,M,-31.4,M,0000,0000*5F
$GPRMC,123051.000,A,3357.6545,N,08323.0512,W,0.00,179.63,040815,,,D*73
$GPGGA,123052.000,3357.6545,N,08323.0512,W,2,07,1.09,214.9,M,-31.4,M,0000,0000*5C
$GPRMC,123052.000,A,3357.6545,N,08323.0512,W,0.01,179.63,040815,,,D*71
$GPGGA,123053.000,3357.6545,N,08323.0512,W,2,07,1.09,214.9,M,-31.4,M,0000,0000*5D
$GPRMC,123053.000,A,3357.6545,N,08323.0512,W,0.01,179.63,040815,,,D*70
$GPGGA,123054.000,3357.6544,N,08323.0513,W,2,07,1.09,214.9,M,-31.4,M,0000,0000*5A
$GPRMC,123054.000,A,3357.6544,N,08323.0513,W,0.00,179.63,040815,,,D*76
$GPGGA,123055.000,3357.6544,N,08323.0513,W,2,07,1.09,214.9,M,-31.4,M,0000,0000*5B
$GPRMC,123055.000,A,3357.6544,N,08323.0513,W,0.00,179.63,040815,,,D*77
$GPGGA,123056.000,3357.6544,N,08323.0513,W,2,08,1.00,215.0,M,-31.4,M,0000,0000*56
$GPRMC,123056.000,A,3357.6544,N,08323.0513,W,0.00,179.63,040815,,,D*74
$GPGGA,123057.000,3357.6544,N,08323.0513,W,2,08,1.00,215.0,M,-31.4,M,0000,0000*57
$GPRMC,123057.000,A,3357.6544,N,08323.0513,W,0.00,179.63,040815,,,D*75
$GPGGA,123058.000,3357.6544,N,08323.0513,W,2,08,1.04,215.0,M,-31.4,M,0000,0000*5C
$GPRMC,123058.000,A,3357.6544,N,08323.0513,W,0.01,179.63,040815,,,D*7B
$GPGGA,123059.000,3357.6544,N,08323.0513,W,2,08,1.00,215.2,M,-31.4,M,0000,0000*5B
$GPRMC,123059.000,A,3357.6544,N,08323.0513,W,1.04,179.63,040815,,,D*7E
$GPGGA,123100.000,3357.6543,N,08323.0516,W,2,08,1.00,215.4,M,-31.4,M,0000,0000*52
$GPRMC,123100.000,A,3357.6543,N,08323.0516,W,0.00,179.63,040815,,,D*74
$GPGGA,123101.000,3357.6543,N,08323.0516,W,2,08,1.04,215.4,M,-31.4,M,0000,0000*57
$GPRMC,123101.000,A,3357.6543,N,08323.0516,W,0.00,179.63,040815,,,D*75
$GPGGA,123102.000,3357.6543,N,08323.0516,W,2,09,0.87,215.5,M,-31.4,M,0000,0000*5E
$GPRMC,123102.000,A,3357.6543,N,08323.0516,W,0.00,179.63,040815,,,D*76
$GPGGA,123103.000,3357.6543,N,08323.0516,W,2,09,0.86,215.4,M,-31.4,M,0000,0000*5F
$GPRMC,123103.000,A,3357.6543,N,08323.0516,W,0.01,179.63,040815,,,D*76
$GPGGA,123104.000,3357.6543,N,08323.0516,W,2,09,0.86,215.4,M,-31.4,M,0000,0000*58
$GPRMC,123104.000,A,3357.6543,N,08323.0516,W,0.02,179.63,040815,,,D*72
$GPGGA,123105.000,3357.6542,N,08323.0515,W,2,09,0.86,215.4,M,-31.4,M,0000,0000*5B
$GPRMC,123105.000,A,3357.6542,N,08323.0515,W,0.01,179.63,040815,,,D*72
$GPGGA,123106.000,3357.6542,N,08323.0515,W,2,09,0.86,215.3,M,-31.4,M,0000,0000*5F
$GPRMC,123106.000,A,3357.6542,N,08323.0515,W,0.04,179.63,040815,,,D*74
$GPGGA,123107.000,3357.6541,N,08323.0514,W,2,09,0.86,215.3,M,-31.4,M,0000,0000*5C
$GPRMC,123107.000,A,3357.6541,N,08323.0514,W,0.07,179.63,040815,,,D*74
$GPGGA,123108.000,3357.6540,N,08323.0514,W,2,09,0.86,215.3,M,-31.4,M,0000,0000*52
$GPRMC,123108.000,A,3357.6540,N,08323.0514,W,0.07,179.63,040815,,,D*7A
$GPGGA,123109.000,3357.6537,N,08323.0514,W,2,09,0.86,215.3,M,-31.4,M,0000,0000*53
$GPRMC,123109.000,A,3357.6537,N,08323.0514,W,0.08,179.63,040815,,,D*74
$GPGGA,123110.000,3357.6535,N,08323.0514,W,2,09,0.86,215.4,M,-31.4,M,0000,0000*5E
$GPRMC,123110.000,A,3357.6535,N,08323.0514,W,0.84,179.63,040815,,,D*7A
$GPGGA,123111.000,3357.6533,N,08323.0514,W,2,09,0.86,215.4,M,-31.4,M,0000,0000*59
$GPRMC,123111.000,A,3357.6533,N,08323.0514,W,2.05,179.63,040815,,,D*76
$GPGGA,123112.000,3357.6526,N,08323.0514,W,2,09,0.86,215.6,M,-31.4,M,0000,0000*5C
$GPRMC,123112.000,A,3357.6526,N,08323.0514,W,2.90,177.30,040815,,,D*75
$GPGGA,123113.000,3357.6516,N,08323.0514,W,2,09,0.86,215.8,M,-31.4,M,0000,0000*50
